
{'Name': 'Andorra la Vella', 'Latitude': 42.50779, 'Longitude': 1.52109, 'Population': 20430}
{'Name': 'Umm Al Quwain City', 'Latitude': 25.56473, 'Longitude': 55.55517, 'Population': 62747}
{'Name': 'Ras Al Khaimah City', 'Latitude': 25.78953, 'Longitude': 55.9432, 'Population': 351943}
{'Name': 'Zayed City', 'Latitude': 23.65416, 'Longitude': 53.70522, 'Population': 63482}
{'Name': 'Khawr Fakkān', 'Latitude': 25.33132, 'Longitude': 56.34199, 'Population': 40677}
{'Name': 'Dubai', 'Latitude': 25.0657, 'Longitude': 55.17128, 'Population': 2956587}
{'Name': 'Dibba Al-Fujairah', 'Latitude': 25.59246, 'Longitude': 56.26176, 'Population': 30000}
{'Name': 'Dibba Al-Hisn', 'Latitude': 25.61955, 'Longitude': 56.27291, 'Population': 26395}
{'Name': 'Sharjah', 'Latitude': 25.33737, 'Longitude': 55.41206, 'Population': 1324473}
{'Name': 'Ar Ruways', 'Latitude': 24.11028, 'Longitude': 52.73056, 'Population': 16000}
{'Name': 'Al Fujairah City', 'Latitude': 25.11641, 'Longitude': 56.34141, 'Population': 86512}
{'Name': 'Al Ain City', 'Latitude': 24.19167, 'Longitude': 55.76056, 'Population': 55091}
{'Name': 'Ajman City', 'Latitude': 25.40177, 'Longitude': 55.47878, 'Population': 490035}
{'Name': 'Adh Dhayd', 'Latitude': 25.28812, 'Longitude': 55.88157, 'Population': 24716}
{'Name': 'Abu Dhabi', 'Latitude': 24.46667, 'Longitude': 54.36667, 'Population': 603492}
{'Name': 'Khalifah A City', 'Latitude': 24.42588, 'Longitude': 54.605, 'Population': 85374}
{'Name': 'Bani Yas City', 'Latitude': 24.30978, 'Longitude': 54.62944, 'Population': 80498}
{'Name': 'Musaffah', 'Latitude': 24.35893, 'Longitude': 54.48267, 'Population': 243341}
{'Name': 'Al Shamkhah City', 'Latitude': 24.39268, 'Longitude': 54.70779, 'Population': 61710}
{'Name': 'Reef Al Fujairah City', 'Latitude': 25.14479, 'Longitude': 56.24764, 'Population': 82310}
{'Name': 'Abu Dhabi Island and Internal Islands City', 'Latitude': 24.4511, 'Longitude': 54.3969, 'Population': 552215}
{'Name': 'Zaranj', 'Latitude': 30.95962, 'Longitude': 61.86037, 'Population': 49851}
{'Name': 'Taloqan', 'Latitude': 36.73605, 'Longitude': 69.53451, 'Population': 64256}
{'Name': 'Shīnḏanḏ', 'Latitude': 33.30294, 'Longitude': 62.1474, 'Population': 29264}
{'Name': 'Shibirghān', 'Latitude': 36.66757, 'Longitude': 65.7529, 'Population': 55641}
{'Name': 'Shahrak', 'Latitude': 34.10737, 'Longitude': 64.3052, 'Population': 15967}
{'Name': 'Sar-e Pul', 'Latitude': 36.21544, 'Longitude': 65.93249, 'Population': 52121}
{'Name': 'Sang-e Chārak', 'Latitude': 35.84972, 'Longitude': 66.43694, 'Population': 15377}
{'Name': 'Aībak', 'Latitude': 36.26468, 'Longitude': 68.01551, 'Population': 47823}
{'Name': 'Rustāq', 'Latitude': 37.12604, 'Longitude': 69.83045, 'Population': 25636}
{'Name': 'Qarqīn', 'Latitude': 37.41853, 'Longitude': 66.04358, 'Population': 15018}
{'Name': 'Qarāwul', 'Latitude': 37.21959, 'Longitude': 68.7802, 'Population': 24544}
{'Name': 'Pul-e Khumrī', 'Latitude': 35.94458, 'Longitude': 68.71512, 'Population': 56369}
{'Name': 'Paghmān', 'Latitude': 34.58787, 'Longitude': 68.95091, 'Population': 49157}
{'Name': 'Nahrīn', 'Latitude': 36.0649, 'Longitude': 69.13343, 'Population': 22363}
{'Name': 'Maymana', 'Latitude': 35.92139, 'Longitude': 64.78361, 'Population': 75900}
{'Name': 'Mehtar Lām', 'Latitude': 34.67139, 'Longitude': 70.20944, 'Population': 17345}
{'Name': 'Mazār-e Sharīf', 'Latitude': 36.70904, 'Longitude': 67.11087, 'Population': 303282}
{'Name': 'Lashkar Gāh', 'Latitude': 31.59382, 'Longitude': 64.37161, 'Population': 43934}
{'Name': 'Kushk', 'Latitude': 33.29565, 'Longitude': 61.95221, 'Population': 16952}
{'Name': 'Kunduz', 'Latitude': 36.72895, 'Longitude': 68.857, 'Population': 161902}
{'Name': 'Khōst', 'Latitude': 33.33951, 'Longitude': 69.92041, 'Population': 96123}
{'Name': 'Khulm', 'Latitude': 36.69736, 'Longitude': 67.69826, 'Population': 64933}
{'Name': 'Khāsh', 'Latitude': 31.52919, 'Longitude': 62.79055, 'Population': 15133}
{'Name': 'Khanabad', 'Latitude': 36.6825, 'Longitude': 69.11556, 'Population': 71531}
{'Name': 'Karukh', 'Latitude': 34.48108, 'Longitude': 62.5863, 'Population': 17484}
{'Name': 'Kandahār', 'Latitude': 31.61332, 'Longitude': 65.71013, 'Population': 391190}
{'Name': 'Kabul', 'Latitude': 34.52813, 'Longitude': 69.17233, 'Population': 3043532}
{'Name': 'Jalālābād', 'Latitude': 34.42647, 'Longitude': 70.45153, 'Population': 200331}
{'Name': 'Jabal os Saraj', 'Latitude': 35.11833, 'Longitude': 69.23778, 'Population': 15032}
{'Name': 'Herāt', 'Latitude': 34.34817, 'Longitude': 62.19967, 'Population': 272806}
{'Name': 'Ghormach', 'Latitude': 35.73062, 'Longitude': 63.78264, 'Population': 30000}
{'Name': 'Ghazni', 'Latitude': 33.55391, 'Longitude': 68.42096, 'Population': 141000}
{'Name': 'Gereshk', 'Latitude': 31.82089, 'Longitude': 64.57005, 'Population': 43588}
{'Name': 'Gardez', 'Latitude': 33.59744, 'Longitude': 69.22592, 'Population': 103601}
{'Name': 'Fayzabad', 'Latitude': 37.11664, 'Longitude': 70.58002, 'Population': 44421}
{'Name': 'Farah', 'Latitude': 32.37451, 'Longitude': 62.11638, 'Population': 43561}
{'Name': 'Kafir Qala', 'Latitude': 34.66667, 'Longitude': 61.06667, 'Population': 18086}
{'Name': 'Charikar', 'Latitude': 35.01361, 'Longitude': 69.17139, 'Population': 53676}
{'Name': 'Baraki Barak', 'Latitude': 33.96744, 'Longitude': 68.9492, 'Population': 22305}
{'Name': 'Bāmyān', 'Latitude': 34.82156, 'Longitude': 67.82734, 'Population': 61863}
{'Name': 'Balkh', 'Latitude': 36.75635, 'Longitude': 66.8972, 'Population': 114883}
{'Name': 'Baghlān', 'Latitude': 36.13068, 'Longitude': 68.70829, 'Population': 108449}
{'Name': 'Ārt Khwājah', 'Latitude': 37.08571, 'Longitude': 69.47958, 'Population': 18623}
{'Name': 'Āsmār', 'Latitude': 35.03333, 'Longitude': 71.35809, 'Population': 15708}
{'Name': 'Asadābād', 'Latitude': 34.87311, 'Longitude': 71.14697, 'Population': 48400}
{'Name': 'Andkhōy', 'Latitude': 36.95293, 'Longitude': 65.12376, 'Population': 29208}
{'Name': 'Bāzārak', 'Latitude': 35.31292, 'Longitude': 69.51519, 'Population': 65000}
{'Name': 'Markaz-e Woluswalī-ye Āchīn', 'Latitude': 34.12583, 'Longitude': 70.70778, 'Population': 15098}
{'Name': 'Saint John’s', 'Latitude': 17.12096, 'Longitude': -61.84329, 'Population': 24226}
{'Name': 'The Valley', 'Latitude': 18.21704, 'Longitude': -63.05783, 'Population': 2035}
{'Name': 'Sarandë', 'Latitude': 39.87534, 'Longitude': 20.00477, 'Population': 15147}
{'Name': 'Pogradec', 'Latitude': 40.9025, 'Longitude': 20.6525, 'Population': 61530}
{'Name': 'Kukës', 'Latitude': 42.07694, 'Longitude': 20.42194, 'Population': 17832}
{'Name': 'Korçë', 'Latitude': 40.61861, 'Longitude': 20.78083, 'Population': 58259}
{'Name': 'Gjirokastër', 'Latitude': 40.07583, 'Longitude': 20.13889, 'Population': 23437}
{'Name': 'Elbasan', 'Latitude': 41.1125, 'Longitude': 20.08222, 'Population': 100903}
{'Name': 'Burrel', 'Latitude': 41.61028, 'Longitude': 20.00889, 'Population': 15405}
{'Name': 'Vlorë', 'Latitude': 40.4686, 'Longitude': 19.48318, 'Population': 89546}
{'Name': 'Tirana', 'Latitude': 41.3275, 'Longitude': 19.81889, 'Population': 374801}
{'Name': 'Shkodër', 'Latitude': 42.06828, 'Longitude': 19.51258, 'Population': 88245}
{'Name': 'Patos Fshat', 'Latitude': 40.64278, 'Longitude': 19.65083, 'Population': 22679}
{'Name': 'Patos', 'Latitude': 40.68333, 'Longitude': 19.61944, 'Population': 60000}
{'Name': 'Lushnjë', 'Latitude': 40.94194, 'Longitude': 19.705, 'Population': 41469}
{'Name': 'Lezhë', 'Latitude': 41.78361, 'Longitude': 19.64361, 'Population': 18695}
{'Name': 'Laç', 'Latitude': 41.63556, 'Longitude': 19.71306, 'Population': 24825}
{'Name': 'Kuçovë', 'Latitude': 40.80028, 'Longitude': 19.91667, 'Population': 18166}
{'Name': 'Krujë', 'Latitude': 41.50917, 'Longitude': 19.79278, 'Population': 21286}
{'Name': 'Kavajë', 'Latitude': 41.18556, 'Longitude': 19.55694, 'Population': 29354}
{'Name': 'Fier-Çifçi', 'Latitude': 40.71667, 'Longitude': 19.56667, 'Population': 60995}
{'Name': 'Fier', 'Latitude': 40.72389, 'Longitude': 19.55611, 'Population': 56297}
{'Name': 'Durrës', 'Latitude': 41.32355, 'Longitude': 19.45469, 'Population': 122034}
{'Name': 'Berat', 'Latitude': 40.70583, 'Longitude': 19.95222, 'Population': 46866}
{'Name': 'Kapan', 'Latitude': 39.20755, 'Longitude': 46.40576, 'Population': 33160}
{'Name': 'Goris', 'Latitude': 39.51111, 'Longitude': 46.34168, 'Population': 20379}
{'Name': 'Hats’avan', 'Latitude': 39.46405, 'Longitude': 45.97047, 'Population': 15208}
{'Name': 'Artashat', 'Latitude': 39.96144, 'Longitude': 44.54447, 'Population': 20562}
{'Name': 'Ararat', 'Latitude': 39.83069, 'Longitude': 44.70569, 'Population': 28832}
{'Name': 'Yerevan', 'Latitude': 40.18111, 'Longitude': 44.51361, 'Population': 1093485}
{'Name': 'Vagharshapat', 'Latitude': 40.16557, 'Longitude': 44.29462, 'Population': 46540}
{'Name': 'Step’anavan', 'Latitude': 41.00995, 'Longitude': 44.38531, 'Population': 23782}
{'Name': 'Spitak', 'Latitude': 40.83221, 'Longitude': 44.26731, 'Population': 15059}
{'Name': 'Sevan', 'Latitude': 40.5473, 'Longitude': 44.94171, 'Population': 17083}
{'Name': 'Masis', 'Latitude': 40.06542, 'Longitude': 44.41618, 'Population': 18911}
{'Name': 'Vanadzor', 'Latitude': 40.80456, 'Longitude': 44.4939, 'Population': 101098}
{'Name': 'Gavarr', 'Latitude': 40.35398, 'Longitude': 45.12386, 'Population': 21680}
{'Name': 'Hrazdan', 'Latitude': 40.49748, 'Longitude': 44.7662, 'Population': 40795}
{'Name': 'Armavir', 'Latitude': 40.15446, 'Longitude': 44.03815, 'Population': 25963}
{'Name': 'Gyumri', 'Latitude': 40.7942, 'Longitude': 43.84528, 'Population': 148381}
{'Name': 'Ashtarak', 'Latitude': 40.2991, 'Longitude': 44.36204, 'Population': 18779}
{'Name': 'Abovyan', 'Latitude': 40.27368, 'Longitude': 44.63348, 'Population': 35673}
{'Name': 'Saurimo', 'Latitude': -9.66078, 'Longitude': 20.39155, 'Population': 40498}
{'Name': 'Lucapa', 'Latitude': -8.41915, 'Longitude': 20.74466, 'Population': 20115}
{'Name': 'Luau', 'Latitude': -10.70727, 'Longitude': 22.22466, 'Population': 18465}
{'Name': 'Uíge', 'Latitude': -7.60874, 'Longitude': 15.06131, 'Population': 60008}
{'Name': 'Soio', 'Latitude': -6.1349, 'Longitude': 12.36894, 'Population': 67491}
{'Name': "N'zeto", 'Latitude': -7.23116, 'Longitude': 12.8666, 'Population': 18352}
{'Name': 'N’dalatando', 'Latitude': -9.29782, 'Longitude': 14.91162, 'Population': 383100}
{'Name': 'Mbanza Congo', 'Latitude': -6.26703, 'Longitude': 14.2401, 'Population': 24220}
{'Name': 'Malanje', 'Latitude': -9.54015, 'Longitude': 16.34096, 'Population': 87046}
{'Name': 'Luanda', 'Latitude': -8.83682, 'Longitude': 13.23432, 'Population': 2776168}
{'Name': 'Caxito', 'Latitude': -8.57848, 'Longitude': 13.66425, 'Population': 28224}
{'Name': 'Cabinda', 'Latitude': -5.55, 'Longitude': 12.2, 'Population': 66020}
{'Name': 'Sumbe', 'Latitude': -11.20605, 'Longitude': 13.84371, 'Population': 33277}
{'Name': 'Namibe', 'Latitude': -15.19611, 'Longitude': 12.15222, 'Population': 80149}
{'Name': 'Menongue', 'Latitude': -14.6585, 'Longitude': 17.69099, 'Population': 32203}
{'Name': 'Luena', 'Latitude': -11.78333, 'Longitude': 19.91667, 'Population': 21115}
{'Name': 'Lubango', 'Latitude': -14.91717, 'Longitude': 13.4925, 'Population': 102541}
{'Name': 'Longonjo', 'Latitude': -12.90667, 'Longitude': 15.25333, 'Population': 24346}
{'Name': 'Lobito', 'Latitude': -12.3644, 'Longitude': 13.53601, 'Population': 207932}
{'Name': 'Cuito', 'Latitude': -12.38333, 'Longitude': 16.93333, 'Population': 113624}
{'Name': 'Huambo', 'Latitude': -12.77611, 'Longitude': 15.73917, 'Population': 226145}
{'Name': 'Catumbela', 'Latitude': -12.43002, 'Longitude': 13.54677, 'Population': 16977}
{'Name': 'Catabola', 'Latitude': -12.15, 'Longitude': 17.28333, 'Population': 18855}
{'Name': 'Camacupa', 'Latitude': -12.01667, 'Longitude': 17.48333, 'Population': 19150}
{'Name': 'Caála', 'Latitude': -12.8525, 'Longitude': 15.56056, 'Population': 21205}
{'Name': 'Benguela', 'Latitude': -12.57626, 'Longitude': 13.40547, 'Population': 151226}
{'Name': 'Zárate', 'Latitude': -34.09814, 'Longitude': -59.02858, 'Population': 88781}
{'Name': 'Wanda', 'Latitude': -25.96879, 'Longitude': -54.56285, 'Population': 15529}
{'Name': 'Villa Ortúzar', 'Latitude': -34.57973, 'Longitude': -58.46829, 'Population': 22500}
{'Name': 'Villa Ocampo', 'Latitude': -28.48752, 'Longitude': -59.35515, 'Population': 19101}
{'Name': 'Villa Lugano', 'Latitude': -34.67907, 'Longitude': -58.47263, 'Population': 114000}
{'Name': 'Villaguay', 'Latitude': -31.8653, 'Longitude': -59.02689, 'Population': 32027}
{'Name': 'Villa Gesell', 'Latitude': -37.26394, 'Longitude': -56.97304, 'Population': 23257}
{'Name': 'Villa de Mayo', 'Latitude': -34.5108, 'Longitude': -58.68059, 'Population': 43405}
{'Name': 'Tortuguitas', 'Latitude': -34.47513, 'Longitude': -58.75367, 'Population': 41390}
{'Name': 'Tigre', 'Latitude': -34.42603, 'Longitude': -58.57962, 'Population': 31106}
{'Name': 'Tandil', 'Latitude': -37.32167, 'Longitude': -59.13316, 'Population': 104325}
{'Name': 'San Vicente', 'Latitude': -26.61667, 'Longitude': -54.13333, 'Population': 38247}
{'Name': 'Santo Tomé', 'Latitude': -28.54939, 'Longitude': -56.04077, 'Population': 22634}
{'Name': 'Santa Elena', 'Latitude': -30.94432, 'Longitude': -59.78832, 'Population': 18410}
{'Name': 'San Pedro', 'Latitude': -33.67918, 'Longitude': -59.66633, 'Population': 47452}
{'Name': 'San Pedro', 'Latitude': -26.62207, 'Longitude': -54.10842, 'Population': 23736}
{'Name': 'San Luis del Palmar', 'Latitude': -27.5079, 'Longitude': -58.55454, 'Population': 15347}
{'Name': 'San Lorenzo', 'Latitude': -28.13306, 'Longitude': -58.76733, 'Population': 47626}
{'Name': 'San Javier', 'Latitude': -30.57781, 'Longitude': -59.9317, 'Population': 15606}
{'Name': 'San Isidro', 'Latitude': -34.4721, 'Longitude': -58.52708, 'Population': 45190}
{'Name': 'Saladas', 'Latitude': -28.25384, 'Longitude': -58.62591, 'Population': 18349}
{'Name': 'Retiro', 'Latitude': -34.58333, 'Longitude': -58.38333, 'Population': 38635}
{'Name': 'Resistencia', 'Latitude': -27.46056, 'Longitude': -58.98389, 'Population': 387158}
{'Name': 'Reconquista', 'Latitude': -29.15, 'Longitude': -59.65, 'Population': 90184}
{'Name': 'Quilmes', 'Latitude': -34.72904, 'Longitude': -58.26374, 'Population': 230000}
{'Name': 'Puerto Rico', 'Latitude': -26.79598, 'Longitude': -55.02402, 'Population': 17491}
{'Name': 'Puerto Iguazú', 'Latitude': -25.59912, 'Longitude': -54.57355, 'Population': 32038}
{'Name': 'Puerto Esperanza', 'Latitude': -26.02267, 'Longitude': -54.61356, 'Population': 15579}
{'Name': 'Puerto Eldorado', 'Latitude': -26.40843, 'Longitude': -54.69463, 'Population': 54189}
{'Name': 'Posadas', 'Latitude': -27.36708, 'Longitude': -55.89608, 'Population': 323739}
{'Name': 'Pontevedra', 'Latitude': -34.74785, 'Longitude': -58.70072, 'Population': 33515}
{'Name': 'Pirané', 'Latitude': -25.73239, 'Longitude': -59.10879, 'Population': 19124}
{'Name': 'Pilar', 'Latitude': -34.45866, 'Longitude': -58.9142, 'Population': 226517}
{'Name': 'Paso de los Libres', 'Latitude': -29.71251, 'Longitude': -57.08771, 'Population': 43805}
{'Name': 'Oberá', 'Latitude': -27.48706, 'Longitude': -55.11994, 'Population': 56528}
{'Name': 'Necochea', 'Latitude': -38.5545, 'Longitude': -58.73961, 'Population': 80478}
{'Name': 'Muñiz', 'Latitude': -34.55622, 'Longitude': -58.70739, 'Population': 26221}
{'Name': 'Morón', 'Latitude': -34.6509, 'Longitude': -58.61956, 'Population': 319934}
{'Name': 'Monte Caseros', 'Latitude': -30.25359, 'Longitude': -57.63626, 'Population': 24671}
{'Name': 'Montecarlo', 'Latitude': -26.5662, 'Longitude': -54.757, 'Population': 22229}
{'Name': 'Merlo', 'Latitude': -34.66627, 'Longitude': -58.72927, 'Population': 244168}
{'Name': 'Mercedes', 'Latitude': -34.65145, 'Longitude': -59.43068, 'Population': 52949}
{'Name': 'Mercedes', 'Latitude': -29.18416, 'Longitude': -58.07519, 'Population': 30649}
{'Name': 'Mar del Plata', 'Latitude': -38.00042, 'Longitude': -57.5562, 'Population': 553935}
{'Name': 'Luján', 'Latitude': -34.57028, 'Longitude': -59.105, 'Population': 81749}
{'Name': 'Los Polvorines', 'Latitude': -34.50316, 'Longitude': -58.70596, 'Population': 53354}
{'Name': 'La Plata', 'Latitude': -34.92145, 'Longitude': -57.95453, 'Population': 694167}
{'Name': 'La Paz', 'Latitude': -30.74179, 'Longitude': -59.64517, 'Population': 24716}
{'Name': 'Jardín América', 'Latitude': -27.04346, 'Longitude': -55.22698, 'Population': 24905}
{'Name': 'Hurlingham', 'Latitude': -34.5904, 'Longitude': -58.62904, 'Population': 60000}
{'Name': 'Gualeguaychú', 'Latitude': -33.00937, 'Longitude': -58.51722, 'Population': 78676}
{'Name': 'Gualeguay', 'Latitude': -33.14156, 'Longitude': -59.30966, 'Population': 33120}
{'Name': 'Goya', 'Latitude': -29.13995, 'Longitude': -59.26343, 'Population': 70245}
{'Name': 'Gobernador Virasora', 'Latitude': -28.05, 'Longitude': -56.03333, 'Population': 28756}
{'Name': 'General Pacheco', 'Latitude': -34.45256, 'Longitude': -58.64312, 'Population': 43287}
{'Name': 'General José de San Martín', 'Latitude': -26.53743, 'Longitude': -59.34158, 'Population': 31758}
{'Name': 'Garupá', 'Latitude': -27.48171, 'Longitude': -55.82921, 'Population': 28814}
{'Name': 'Formosa', 'Latitude': -26.18489, 'Longitude': -58.17313, 'Population': 221383}
{'Name': 'Fontana', 'Latitude': -27.41813, 'Longitude': -59.02392, 'Population': 26745}
{'Name': 'Federal', 'Latitude': -30.95465, 'Longitude': -58.78326, 'Population': 16333}
{'Name': 'Esquina', 'Latitude': -30.01476, 'Longitude': -59.5289, 'Population': 26399}
{'Name': 'El Soberbio', 'Latitude': -27.29847, 'Longitude': -54.19877, 'Population': 19571}
{'Name': 'Don Torcuato', 'Latitude': -34.49459, 'Longitude': -58.62729, 'Population': 64867}
{'Name': 'Dolores', 'Latitude': -36.31321, 'Longitude': -57.67918, 'Population': 25190}
{'Name': 'Curuzú Cuatiá', 'Latitude': -29.79171, 'Longitude': -58.0546, 'Population': 36390}
{'Name': 'Corrientes', 'Latitude': -27.46784, 'Longitude': -58.8344, 'Population': 339067}
{'Name': 'Concordia', 'Latitude': -31.39296, 'Longitude': -58.02089, 'Population': 145210}
{'Name': 'Concepción del Uruguay', 'Latitude': -32.48463, 'Longitude': -58.23217, 'Population': 67895}
{'Name': 'Colegiales', 'Latitude': -34.57365, 'Longitude': -58.44924, 'Population': 57000}
{'Name': 'Chajarí', 'Latitude': -30.75048, 'Longitude': -57.97962, 'Population': 30655}
{'Name': 'Campana', 'Latitude': -34.16327, 'Longitude': -58.95919, 'Population': 81612}
{'Name': 'Buenos Aires', 'Latitude': -34.61315, 'Longitude': -58.37723, 'Population': 13076300}
{'Name': 'Boedo', 'Latitude': -34.63333, 'Longitude': -58.41667, 'Population': 48231}
{'Name': 'Berazategui', 'Latitude': -34.76531, 'Longitude': -58.21278, 'Population': 167498}
{'Name': 'Belgrano', 'Latitude': -34.5627, 'Longitude': -58.45829, 'Population': 138942}
{'Name': 'Barranqueras', 'Latitude': -27.48132, 'Longitude': -58.93925, 'Population': 50823}
{'Name': 'Barracas', 'Latitude': -34.64966, 'Longitude': -58.38341, 'Population': 77474}
{'Name': 'Balcarce', 'Latitude': -37.84616, 'Longitude': -58.25522, 'Population': 38823}
{'Name': 'Azul', 'Latitude': -36.77698, 'Longitude': -59.85854, 'Population': 53941}
{'Name': 'Avellaneda', 'Latitude': -29.11761, 'Longitude': -59.65834, 'Population': 23077}
{'Name': 'Aristóbulo del Valle', 'Latitude': -27.09625, 'Longitude': -54.89626, 'Population': 20683}
{'Name': 'Zapala', 'Latitude': -38.89916, 'Longitude': -70.05442, 'Population': 31534}
{'Name': 'Yerba Buena', 'Latitude': -26.81667, 'Longitude': -65.31667, 'Population': 50783}
{'Name': 'Villa Regina', 'Latitude': -39.1, 'Longitude': -67.06667, 'Population': 31209}
{'Name': 'Villa Paula de Sarmiento', 'Latitude': -31.4933, 'Longitude': -68.53838, 'Population': 19092}
{'Name': 'Villa Nueva', 'Latitude': -32.43293, 'Longitude': -63.24763, 'Population': 16841}
{'Name': 'Villa María', 'Latitude': -32.40751, 'Longitude': -63.24016, 'Population': 92453}
{'Name': 'Villa Dolores', 'Latitude': -31.94585, 'Longitude': -65.18958, 'Population': 28009}
{'Name': 'Villa Constitución', 'Latitude': -33.22778, 'Longitude': -60.3297, 'Population': 44271}
{'Name': 'Villa Carlos Paz', 'Latitude': -31.42414, 'Longitude': -64.49778, 'Population': 69451}
{'Name': 'Villa Ángela', 'Latitude': -27.57383, 'Longitude': -60.71526, 'Population': 43511}
{'Name': 'Villa Allende', 'Latitude': -31.29458, 'Longitude': -64.29538, 'Population': 21683}
{'Name': 'Viedma', 'Latitude': -40.81345, 'Longitude': -62.99668, 'Population': 48940}
{'Name': 'Victoria', 'Latitude': -32.61841, 'Longitude': -60.15478, 'Population': 25139}
{'Name': 'Vera', 'Latitude': -29.4593, 'Longitude': -60.21261, 'Population': 19797}
{'Name': 'Venado Tuerto', 'Latitude': -33.74556, 'Longitude': -61.96885, 'Population': 72340}
{'Name': 'Veinticinco de Mayo', 'Latitude': -35.4323, 'Longitude': -60.17271, 'Population': 24668}
{'Name': 'Ushuaia', 'Latitude': -54.81084, 'Longitude': -68.31591, 'Population': 58028}
{'Name': 'Unquillo', 'Latitude': -31.23073, 'Longitude': -64.31615, 'Population': 15369}
{'Name': 'Tres Isletas', 'Latitude': -26.34067, 'Longitude': -60.43207, 'Population': 24747}
{'Name': 'Tres Arroyos', 'Latitude': -38.37394, 'Longitude': -60.27978, 'Population': 47136}
{'Name': 'Trelew', 'Latitude': -43.24895, 'Longitude': -65.30505, 'Population': 93442}
{'Name': 'Termas de Río Hondo', 'Latitude': -27.49362, 'Longitude': -64.85972, 'Population': 27838}
{'Name': 'Tartagal', 'Latitude': -22.51637, 'Longitude': -63.80131, 'Population': 60819}
{'Name': 'Tafí Viejo', 'Latitude': -26.73201, 'Longitude': -65.25921, 'Population': 48459}
{'Name': 'Sunchales', 'Latitude': -30.94404, 'Longitude': -61.56148, 'Population': 18757}
{'Name': 'Santo Tomé', 'Latitude': -31.66274, 'Longitude': -60.7653, 'Population': 59072}
{'Name': 'Santiago del Estero', 'Latitude': -27.79511, 'Longitude': -64.26149, 'Population': 354692}
{'Name': 'Santa Rosa', 'Latitude': -36.61667, 'Longitude': -64.28333, 'Population': 111424}
{'Name': 'Santa Lucía', 'Latitude': -31.53987, 'Longitude': -68.49503, 'Population': 43565}
{'Name': 'Santa Fe', 'Latitude': -31.64881, 'Longitude': -60.70868, 'Population': 489505}
{'Name': 'San Salvador de Jujuy', 'Latitude': -24.19457, 'Longitude': -65.29712, 'Population': 305891}
{'Name': 'San Ramón de la Nueva Orán', 'Latitude': -23.13705, 'Longitude': -64.32426, 'Population': 74059}
{'Name': 'San Rafael', 'Latitude': -34.61772, 'Longitude': -68.33007, 'Population': 109163}
{'Name': 'San Pedro de Jujuy', 'Latitude': -24.23127, 'Longitude': -64.86614, 'Population': 58430}
{'Name': 'San Nicolás de los Arroyos', 'Latitude': -33.33425, 'Longitude': -60.2108, 'Population': 127742}
{'Name': 'San Miguel de Tucumán', 'Latitude': -26.82414, 'Longitude': -65.2226, 'Population': 781023}
{'Name': 'San Martín de los Andes', 'Latitude': -40.15789, 'Longitude': -71.35337, 'Population': 23519}
{'Name': 'San Martín', 'Latitude': -33.08103, 'Longitude': -68.46814, 'Population': 82549}
{'Name': 'San Luis', 'Latitude': -33.29501, 'Longitude': -66.33563, 'Population': 183982}
{'Name': 'San Justo', 'Latitude': -30.78913, 'Longitude': -60.59189, 'Population': 21809}
{'Name': 'San Juan', 'Latitude': -31.5375, 'Longitude': -68.53639, 'Population': 447048}
{'Name': 'San José de Jáchal', 'Latitude': -30.24057, 'Longitude': -68.74693, 'Population': 21018}
{'Name': 'San Jorge', 'Latitude': -31.89618, 'Longitude': -61.85984, 'Population': 16873}
{'Name': 'San Francisco', 'Latitude': -31.42797, 'Longitude': -62.08266, 'Population': 59062}
{'Name': 'San Fernando del Valle de Catamarca', 'Latitude': -28.46957, 'Longitude': -65.78524, 'Population': 188812}
{'Name': 'San Antonio Oeste', 'Latitude': -40.73193, 'Longitude': -64.94769, 'Population': 16966}
{'Name': 'Salta', 'Latitude': -24.7859, 'Longitude': -65.41166, 'Population': 512686}
{'Name': 'Rufino', 'Latitude': -34.26827, 'Longitude': -62.71262, 'Population': 18361}
{'Name': 'Rosario', 'Latitude': -32.94682, 'Longitude': -60.63932, 'Population': 1173533}
{'Name': 'Río Tercero', 'Latitude': -32.17301, 'Longitude': -64.11405, 'Population': 53389}
{'Name': 'Río Segundo', 'Latitude': -31.6526, 'Longitude': -63.9099, 'Population': 18155}
{'Name': 'Río Grande', 'Latitude': -53.78769, 'Longitude': -67.70946, 'Population': 52681}
{'Name': 'Río Gallegos', 'Latitude': -51.62261, 'Longitude': -69.21813, 'Population': 85700}
{'Name': 'Río Cuarto', 'Latitude': -33.13067, 'Longitude': -64.34992, 'Population': 153757}
{'Name': 'Río Ceballos', 'Latitude': -31.16486, 'Longitude': -64.32241, 'Population': 16632}
{'Name': 'Rawson', 'Latitude': -43.30016, 'Longitude': -65.10228, 'Population': 26335}
{'Name': 'Rafaela', 'Latitude': -31.25033, 'Longitude': -61.4867, 'Population': 88713}
{'Name': 'Quitilipi', 'Latitude': -26.86913, 'Longitude': -60.21683, 'Population': 32083}
{'Name': 'Punta Alta', 'Latitude': -38.87588, 'Longitude': -62.07359, 'Population': 57209}
{'Name': 'Puerto Madryn', 'Latitude': -42.7692, 'Longitude': -65.03851, 'Population': 64555}
{'Name': 'Presidencia Roque Sáenz Peña', 'Latitude': -26.78522, 'Longitude': -60.43876, 'Population': 81879}
{'Name': 'Pocito', 'Latitude': -31.68333, 'Longitude': -68.58333, 'Population': 40969}
{'Name': 'Plottier', 'Latitude': -38.96667, 'Longitude': -68.23333, 'Population': 25186}
{'Name': 'Pergamino', 'Latitude': -33.88995, 'Longitude': -60.57357, 'Population': 87652}
{'Name': 'Pérez', 'Latitude': -32.99835, 'Longitude': -60.76791, 'Population': 24436}
{'Name': 'Paraná', 'Latitude': -31.73271, 'Longitude': -60.52897, 'Population': 262295}
{'Name': 'Palpalá', 'Latitude': -24.25647, 'Longitude': -65.21163, 'Population': 48199}
{'Name': 'Olavarría', 'Latitude': -36.89272, 'Longitude': -60.32254, 'Population': 86320}
{'Name': 'Nueve de Julio', 'Latitude': -35.44437, 'Longitude': -60.88313, 'Population': 34718}
{'Name': 'Neuquén', 'Latitude': -38.95161, 'Longitude': -68.0591, 'Population': 242092}
{'Name': 'Morteros', 'Latitude': -30.71164, 'Longitude': -61.99862, 'Population': 15129}
{'Name': 'Monteros', 'Latitude': -27.16741, 'Longitude': -65.49832, 'Population': 23771}
{'Name': 'Mendoza', 'Latitude': -32.89084, 'Longitude': -68.82717, 'Population': 876884}
{'Name': 'Marcos Juárez', 'Latitude': -32.6978, 'Longitude': -62.10672, 'Population': 24226}
{'Name': 'Machagai', 'Latitude': -26.92614, 'Longitude': -60.04955, 'Population': 28070}
{'Name': 'Lincoln', 'Latitude': -34.86649, 'Longitude': -61.5302, 'Population': 41808}
{'Name': 'Libertador General San Martín', 'Latitude': -23.80644, 'Longitude': -64.78757, 'Population': 49267}
{'Name': 'Las Breñas', 'Latitude': -27.08966, 'Longitude': -61.08161, 'Population': 26955}
{'Name': 'La Rioja', 'Latitude': -29.41105, 'Longitude': -66.85067, 'Population': 162620}
{'Name': 'La Falda', 'Latitude': -31.08841, 'Longitude': -64.48987, 'Population': 15112}
{'Name': 'La Calera', 'Latitude': -31.34377, 'Longitude': -64.33529, 'Population': 24796}
{'Name': 'Laboulaye', 'Latitude': -34.12662, 'Longitude': -63.39119, 'Population': 19908}
{'Name': 'Junín', 'Latitude': -34.58382, 'Longitude': -60.94332, 'Population': 85007}
{'Name': 'Joaquín V. González', 'Latitude': -25.11364, 'Longitude': -64.12628, 'Population': 19185}
{'Name': 'Jesús María', 'Latitude': -30.98153, 'Longitude': -64.09424, 'Population': 26825}
{'Name': 'Granadero Baigorria', 'Latitude': -32.85683, 'Longitude': -60.71754, 'Population': 32427}
{'Name': 'Gobernador Gálvez', 'Latitude': -33.03016, 'Longitude': -60.64045, 'Population': 74650}
{'Name': 'General Villegas', 'Latitude': -35.03285, 'Longitude': -63.01252, 'Population': 16270}
{'Name': 'General Roca', 'Latitude': -39.03333, 'Longitude': -67.58333, 'Population': 73212}
{'Name': 'General Pinedo', 'Latitude': -27.31667, 'Longitude': -61.28333, 'Population': 15741}
{'Name': 'General Pico', 'Latitude': -35.65662, 'Longitude': -63.75682, 'Population': 57029}
{'Name': 'General Enrique Mosconi', 'Latitude': -22.59588, 'Longitude': -63.81255, 'Population': 19811}
{'Name': 'Gálvez', 'Latitude': -32.02927, 'Longitude': -61.22103, 'Population': 18374}
{'Name': 'Firmat', 'Latitude': -33.45937, 'Longitude': -61.4832, 'Population': 18294}
{'Name': 'Famaillá', 'Latitude': -27.05413, 'Longitude': -65.40329, 'Population': 30951}
{'Name': 'Esquel', 'Latitude': -42.91147, 'Longitude': -71.31947, 'Population': 28486}
{'Name': 'Esperanza', 'Latitude': -31.4488, 'Longitude': -60.93173, 'Population': 35885}
{'Name': 'Embarcación', 'Latitude': -23.21003, 'Longitude': -64.09965, 'Population': 23961}
{'Name': 'Embalse', 'Latitude': -32.18, 'Longitude': -64.41809, 'Population': 15900}
{'Name': 'El Bolsón', 'Latitude': -41.96051, 'Longitude': -71.53336, 'Population': 15537}
{'Name': 'Diamante', 'Latitude': -32.06641, 'Longitude': -60.63837, 'Population': 19545}
{'Name': 'Deán Funes', 'Latitude': -30.42036, 'Longitude': -64.34984, 'Population': 20164}
{'Name': 'Cutral-Có', 'Latitude': -38.93424, 'Longitude': -69.23052, 'Population': 47380}
{'Name': 'Cruz del Eje', 'Latitude': -30.72644, 'Longitude': -64.80387, 'Population': 28166}
{'Name': 'Crespo', 'Latitude': -32.02873, 'Longitude': -60.30658, 'Population': 18296}
{'Name': 'Cosquín', 'Latitude': -31.24508, 'Longitude': -64.46563, 'Population': 19070}
{'Name': 'Coronel Suárez', 'Latitude': -37.45467, 'Longitude': -61.93343, 'Population': 27000}
{'Name': 'Coronda', 'Latitude': -31.97263, 'Longitude': -60.91983, 'Population': 16975}
{'Name': 'Córdoba', 'Latitude': -31.4135, 'Longitude': -64.18105, 'Population': 1428214}
{'Name': 'Comodoro Rivadavia', 'Latitude': -45.86413, 'Longitude': -67.49656, 'Population': 140850}
{'Name': 'Cipolletti', 'Latitude': -38.93392, 'Longitude': -67.99032, 'Population': 75078}
{'Name': 'Cinco Saltos', 'Latitude': -38.82225, 'Longitude': -68.06293, 'Population': 19819}
{'Name': 'Chivilcoy', 'Latitude': -34.89566, 'Longitude': -60.01667, 'Population': 54514}
{'Name': 'Chimbas', 'Latitude': -31.48333, 'Longitude': -68.53333, 'Population': 73829}
{'Name': 'Chilecito', 'Latitude': -29.16195, 'Longitude': -67.4974, 'Population': 42248}
{'Name': 'Charata', 'Latitude': -27.21438, 'Longitude': -61.18795, 'Population': 27813}
{'Name': 'Chacabuco', 'Latitude': -34.64167, 'Longitude': -60.47389, 'Population': 34587}
{'Name': 'Centenario', 'Latitude': -38.82955, 'Longitude': -68.1318, 'Population': 28956}
{'Name': 'Caucete', 'Latitude': -31.65179, 'Longitude': -68.28105, 'Population': 33609}
{'Name': 'Catriel', 'Latitude': -37.87907, 'Longitude': -67.7956, 'Population': 15169}
{'Name': 'Castelli', 'Latitude': -25.94679, 'Longitude': -60.61947, 'Population': 36588}
{'Name': 'Casilda', 'Latitude': -33.04417, 'Longitude': -61.16806, 'Population': 32002}
{'Name': 'Carcarañá', 'Latitude': -32.85679, 'Longitude': -61.15331, 'Population': 15619}
{'Name': 'Capitán Bermúdez', 'Latitude': -32.82262, 'Longitude': -60.71852, 'Population': 27060}
{'Name': 'Cañada de Gómez', 'Latitude': -32.81636, 'Longitude': -61.39493, 'Population': 36000}
{'Name': 'Caleta Olivia', 'Latitude': -46.43929, 'Longitude': -67.52814, 'Population': 36077}
{'Name': 'Bell Ville', 'Latitude': -32.62591, 'Longitude': -62.68873, 'Population': 35105}
{'Name': 'Bella Vista', 'Latitude': -27.03424, 'Longitude': -65.30196, 'Population': 15126}
{'Name': 'Bahía Blanca', 'Latitude': -38.71959, 'Longitude': -62.27243, 'Population': 276546}
{'Name': 'Arroyo Seco', 'Latitude': -33.15489, 'Longitude': -60.50863, 'Population': 20008}
{'Name': 'Arroyito', 'Latitude': -31.42022, 'Longitude': -63.05002, 'Population': 19577}
{'Name': 'Añatuya', 'Latitude': -28.46064, 'Longitude': -62.83472, 'Population': 20261}
{'Name': 'Alta Gracia', 'Latitude': -31.65292, 'Longitude': -64.42826, 'Population': 40384}
{'Name': 'Allen', 'Latitude': -38.97736, 'Longitude': -67.82714, 'Population': 26083}
{'Name': 'Alderetes', 'Latitude': -26.81667, 'Longitude': -65.13333, 'Population': 38466}
{'Name': 'Albardón', 'Latitude': -31.43722, 'Longitude': -68.52556, 'Population': 20413}
{'Name': 'Aguilares', 'Latitude': -27.4338, 'Longitude': -65.61427, 'Population': 32494}
{'Name': 'Balvanera', 'Latitude': -34.61032, 'Longitude': -58.39766, 'Population': 152198}
{'Name': 'Villa Santa Rita', 'Latitude': -34.61082, 'Longitude': -58.481, 'Population': 34000}
{'Name': 'Villa Mercedes', 'Latitude': -33.67571, 'Longitude': -65.45783, 'Population': 96781}
{'Name': 'San Miguel', 'Latitude': -34.54335, 'Longitude': -58.71229, 'Population': 157532}
{'Name': 'San Carlos de Bariloche', 'Latitude': -41.14557, 'Longitude': -71.30822, 'Population': 95394}
{'Name': 'Adrogué', 'Latitude': -34.80041, 'Longitude': -58.38384, 'Population': 28265}
{'Name': 'Ingeniero Pablo Nogués', 'Latitude': -34.47775, 'Longitude': -58.70652, 'Population': 38470}
{'Name': 'Pago Pago', 'Latitude': -14.27806, 'Longitude': -170.7025, 'Population': 11500}
{'Name': 'Wilten', 'Latitude': 47.25829, 'Longitude': 11.38808, 'Population': 18142}
{'Name': 'Wiener Neustadt', 'Latitude': 47.80485, 'Longitude': 16.23196, 'Population': 44820}
{'Name': 'Vienna', 'Latitude': 48.20849, 'Longitude': 16.37208, 'Population': 1691468}
{'Name': 'Wetzelsdorf', 'Latitude': 47.05293, 'Longitude': 15.39923, 'Population': 15687}
{'Name': 'Wels', 'Latitude': 48.16667, 'Longitude': 14.03333, 'Population': 16857}
{'Name': 'Weinzierl bei Krems', 'Latitude': 48.4, 'Longitude': 15.6, 'Population': 24092}
{'Name': 'Villach', 'Latitude': 46.61028, 'Longitude': 13.85583, 'Population': 58882}
{'Name': 'Telfs', 'Latitude': 47.30707, 'Longitude': 11.06817, 'Population': 15229}
{'Name': 'Straßgang', 'Latitude': 47.03333, 'Longitude': 15.4, 'Population': 16268}
{'Name': 'Stockerau', 'Latitude': 48.38333, 'Longitude': 16.21667, 'Population': 16292}
{'Name': 'Steyr', 'Latitude': 48.04274, 'Longitude': 14.42127, 'Population': 38331}
{'Name': 'Simmering', 'Latitude': 48.18333, 'Longitude': 16.43333, 'Population': 101420}
{'Name': 'Sankt Pölten', 'Latitude': 48.2, 'Longitude': 15.63333, 'Population': 21911}
{'Name': 'Sankt Peter', 'Latitude': 47.05, 'Longitude': 15.46667, 'Population': 15187}
{'Name': 'Sankt Peter', 'Latitude': 46.62978, 'Longitude': 14.34016, 'Population': 20320}
{'Name': 'Sankt Martin', 'Latitude': 46.61667, 'Longitude': 14.28333, 'Population': 20000}
{'Name': 'Salzburg', 'Latitude': 47.79941, 'Longitude': 13.04399, 'Population': 153377}
{'Name': 'Pradl', 'Latitude': 47.26539, 'Longitude': 11.4152, 'Population': 32588}
{'Name': 'Perchtoldsdorf', 'Latitude': 48.11935, 'Longitude': 16.26607, 'Population': 15047}
{'Name': 'Ottakring', 'Latitude': 48.21667, 'Longitude': 16.3, 'Population': 104627}
{'Name': 'Mödling', 'Latitude': 48.08605, 'Longitude': 16.28921, 'Population': 20555}
{'Name': 'Meidling', 'Latitude': 48.16667, 'Longitude': 16.33333, 'Population': 97624}
{'Name': 'Lustenau', 'Latitude': 47.42642, 'Longitude': 9.65851, 'Population': 22821}
{'Name': 'Linz', 'Latitude': 48.30639, 'Longitude': 14.28611, 'Population': 204846}
{'Name': 'Klosterneuburg', 'Latitude': 48.30521, 'Longitude': 16.32522, 'Population': 15614}
{'Name': 'Klagenfurt am Wörthersee', 'Latitude': 46.62472, 'Longitude': 14.30528, 'Population': 90610}
{'Name': 'Innsbruck', 'Latitude': 47.26266, 'Longitude': 11.39454, 'Population': 132493}
{'Name': 'Innere Stadt', 'Latitude': 48.20906, 'Longitude': 16.37135, 'Population': 16450}
{'Name': 'Hötting', 'Latitude': 47.26815, 'Longitude': 11.36868, 'Population': 35043}
{'Name': 'Hohenems', 'Latitude': 47.36667, 'Longitude': 9.68306, 'Population': 16317}
{'Name': 'Hietzing', 'Latitude': 48.18623, 'Longitude': 16.2965, 'Population': 54265}
{'Name': 'Hernals', 'Latitude': 48.23333, 'Longitude': 16.26667, 'Population': 57546}
{'Name': 'Graz', 'Latitude': 47.06667, 'Longitude': 15.45, 'Population': 222326}
{'Name': 'Floridsdorf', 'Latitude': 48.25, 'Longitude': 16.4, 'Population': 162779}
{'Name': 'Feldkirch', 'Latitude': 47.23306, 'Longitude': 9.6, 'Population': 33420}
{'Name': 'Eggenberg', 'Latitude': 47.07, 'Longitude': 15.39871, 'Population': 20511}
{'Name': 'Dornbirn', 'Latitude': 47.41427, 'Longitude': 9.74195, 'Population': 49278}
{'Name': 'Bregenz', 'Latitude': 47.50311, 'Longitude': 9.7471, 'Population': 29471}
{'Name': 'Baden', 'Latitude': 48.00543, 'Longitude': 16.23264, 'Population': 26286}
{'Name': 'Amstetten', 'Latitude': 48.1229, 'Longitude': 14.87206, 'Population': 15559}
{'Name': 'Favoriten', 'Latitude': 48.16116, 'Longitude': 16.38233, 'Population': 201882}
{'Name': 'Donaustadt', 'Latitude': 48.2333, 'Longitude': 16.46002, 'Population': 187007}
{'Name': 'Jakomini', 'Latitude': 47.05441, 'Longitude': 15.44984, 'Population': 32912}
{'Name': 'Lend', 'Latitude': 47.08256, 'Longitude': 15.41589, 'Population': 31147}
{'Name': 'Geidorf', 'Latitude': 47.08393, 'Longitude': 15.444, 'Population': 24767}
{'Name': 'Sankt Leonhard', 'Latitude': 47.06924, 'Longitude': 15.45784, 'Population': 15853}
{'Name': 'Andritz', 'Latitude': 47.11387, 'Longitude': 15.42348, 'Population': 19020}
{'Name': 'Gries', 'Latitude': 47.06236, 'Longitude': 15.42421, 'Population': 29363}
{'Name': 'Scarborough', 'Latitude': -31.89578, 'Longitude': 115.76431, 'Population': 15258}
{'Name': 'Rockingham', 'Latitude': -32.27682, 'Longitude': 115.72978, 'Population': 108022}
{'Name': 'Perth', 'Latitude': -31.95224, 'Longitude': 115.8614, 'Population': 1896548}
{'Name': 'Mount Isa', 'Latitude': -20.72523, 'Longitude': 139.49727, 'Population': 22785}
{'Name': 'Morphett Vale', 'Latitude': -35.13333, 'Longitude': 138.51667, 'Population': 22788}
{'Name': 'Mandurah', 'Latitude': -32.5269, 'Longitude': 115.7217, 'Population': 83294}
{'Name': 'Kwinana', 'Latitude': -32.23013, 'Longitude': 115.78128, 'Population': 30433}
{'Name': 'Gosnells', 'Latitude': -32.081, 'Longitude': 116.0054, 'Population': 19914}
{'Name': 'Geraldton', 'Latitude': -28.77897, 'Longitude': 114.61459, 'Population': 26872}
{'Name': 'Gawler', 'Latitude': -34.60251, 'Longitude': 138.74902, 'Population': 20006}
{'Name': 'Darwin', 'Latitude': -12.46113, 'Longitude': 130.84185, 'Population': 129062}
{'Name': 'Busselton', 'Latitude': -33.65249, 'Longitude': 115.3455, 'Population': 21898}
{'Name': 'Bunbury', 'Latitude': -33.32711, 'Longitude': 115.64137, 'Population': 68248}
{'Name': 'Alice Springs', 'Latitude': -23.69748, 'Longitude': 133.88362, 'Population': 25186}
{'Name': 'Albany', 'Latitude': -35.02692, 'Longitude': 117.88369, 'Population': 33650}
{'Name': 'Adelaide', 'Latitude': -34.92866, 'Longitude': 138.59863, 'Population': 1225235}
{'Name': 'Wodonga', 'Latitude': -36.12179, 'Longitude': 146.88809, 'Population': 18582}
{'Name': 'Wheelers Hill', 'Latitude': -37.9, 'Longitude': 145.18333, 'Population': 19369}
{'Name': 'Westmead', 'Latitude': -33.80383, 'Longitude': 150.98768, 'Population': 17835}
{'Name': 'Werribee', 'Latitude': -37.9, 'Longitude': 144.66667, 'Population': 40143}
{'Name': 'Warrnambool', 'Latitude': -38.38176, 'Longitude': 142.48799, 'Population': 29176}
{'Name': 'Warragul', 'Latitude': -38.15912, 'Longitude': 145.93118, 'Population': 15284}
{'Name': 'Wantirna South', 'Latitude': -37.88333, 'Longitude': 145.21667, 'Population': 19081}
{'Name': 'Wangaratta', 'Latitude': -36.35846, 'Longitude': 146.32056, 'Population': 17897}
{'Name': 'Wahroonga', 'Latitude': -33.71816, 'Longitude': 151.11561, 'Population': 17652}
{'Name': 'Upper Coomera', 'Latitude': -27.87683, 'Longitude': 153.28572, 'Population': 24956}
{'Name': 'Truganina', 'Latitude': -37.81667, 'Longitude': 144.75, 'Population': 20646}
{'Name': 'Traralgon', 'Latitude': -38.19528, 'Longitude': 146.5415, 'Population': 24605}
{'Name': 'Townsville', 'Latitude': -19.26639, 'Longitude': 146.80569, 'Population': 196219}
{'Name': 'Toowoomba', 'Latitude': -27.56056, 'Longitude': 151.95386, 'Population': 131258}
{'Name': 'Thornbury', 'Latitude': -37.75819, 'Longitude': 145.00583, 'Population': 18292}
{'Name': 'Thomastown', 'Latitude': -37.68333, 'Longitude': 145.01667, 'Population': 20441}
{'Name': 'Templestowe', 'Latitude': -37.75405, 'Longitude': 145.14864, 'Population': 16305}
{'Name': 'Tarneit', 'Latitude': -37.83634, 'Longitude': 144.65952, 'Population': 34372}
{'Name': 'Taree', 'Latitude': -31.91099, 'Longitude': 152.45387, 'Population': 16359}
{'Name': 'Tamworth', 'Latitude': -31.09048, 'Longitude': 150.92905, 'Population': 47597}
{'Name': 'Sydney', 'Latitude': -33.86785, 'Longitude': 151.20732, 'Population': 4627345}
{'Name': 'Surry Hills', 'Latitude': -33.88374, 'Longitude': 151.21282, 'Population': 16492}
{'Name': 'Surfers Paradise', 'Latitude': -28.00274, 'Longitude': 153.42999, 'Population': 31073}
{'Name': 'Sunbury', 'Latitude': -37.57742, 'Longitude': 144.72607, 'Population': 35449}
{'Name': 'Strathfield', 'Latitude': -33.88096, 'Longitude': 151.07986, 'Population': 25769}
{'Name': 'Springvale', 'Latitude': -37.94853, 'Longitude': 145.15274, 'Population': 21572}
{'Name': 'South Yarra', 'Latitude': -37.83834, 'Longitude': 144.99149, 'Population': 25237}
{'Name': 'Southport', 'Latitude': -27.96724, 'Longitude': 153.39796, 'Population': 32965}
{'Name': 'Shepparton', 'Latitude': -36.38047, 'Longitude': 145.39867, 'Population': 31148}
{'Name': 'Seven Hills', 'Latitude': -33.78333, 'Longitude': 150.93333, 'Population': 19196}
{'Name': 'Seaford', 'Latitude': -38.1, 'Longitude': 145.13333, 'Population': 16148}
{'Name': 'Saint Kilda', 'Latitude': -37.8676, 'Longitude': 144.98099, 'Population': 20417}
{'Name': 'Saint Ives', 'Latitude': -33.72976, 'Longitude': 151.15977, 'Population': 17036}
{'Name': 'Saint Albans', 'Latitude': -37.73333, 'Longitude': 144.8, 'Population': 35091}
{'Name': 'Ryde', 'Latitude': -33.8188, 'Longitude': 151.1062, 'Population': 26385}
{'Name': 'Rowville', 'Latitude': -37.93333, 'Longitude': 145.23333, 'Population': 33160}
{'Name': 'Rockhampton', 'Latitude': -23.38032, 'Longitude': 150.50595, 'Population': 61724}
{'Name': 'Rockdale', 'Latitude': -33.95, 'Longitude': 151.13333, 'Population': 15436}
{'Name': 'Ringwood', 'Latitude': -37.81667, 'Longitude': 145.23333, 'Population': 17242}
{'Name': 'Richmond', 'Latitude': -37.81819, 'Longitude': 145.00176, 'Population': 27878}
{'Name': 'Reservoir', 'Latitude': -37.71667, 'Longitude': 145.0, 'Population': 50092}
{'Name': 'Quakers Hill', 'Latitude': -33.73333, 'Longitude': 150.88333, 'Population': 26904}
{'Name': 'Preston', 'Latitude': -37.75, 'Longitude': 145.01667, 'Population': 32499}
{'Name': 'Port Melbourne', 'Latitude': -37.83961, 'Longitude': 144.94228, 'Population': 15817}
{'Name': 'Port Macquarie', 'Latitude': -31.43084, 'Longitude': 152.90894, 'Population': 45692}
{'Name': 'Point Cook', 'Latitude': -37.91482, 'Longitude': 144.75088, 'Population': 49436}
{'Name': 'Pascoe Vale', 'Latitude': -37.73333, 'Longitude': 144.93333, 'Population': 16850}
{'Name': 'Palm Beach', 'Latitude': -28.11694, 'Longitude': 153.46584, 'Population': 15205}
{'Name': 'Pakenham', 'Latitude': -38.07018, 'Longitude': 145.47411, 'Population': 45895}
{'Name': 'Orange', 'Latitude': -33.28397, 'Longitude': 149.10018, 'Population': 38408}
{'Name': 'North Melbourne', 'Latitude': -37.79798, 'Longitude': 144.94512, 'Population': 15395}
{'Name': 'Northcote', 'Latitude': -37.76667, 'Longitude': 145.0, 'Population': 24115}
{'Name': 'Noble Park', 'Latitude': -37.96667, 'Longitude': 145.16667, 'Population': 30921}
{'Name': 'Newcastle', 'Latitude': -32.92953, 'Longitude': 151.7801, 'Population': 308308}
{'Name': 'Nerang', 'Latitude': -27.98941, 'Longitude': 153.33633, 'Population': 16739}
{'Name': 'Narre Warren', 'Latitude': -38.03333, 'Longitude': 145.3, 'Population': 26389}
{'Name': 'Narangba', 'Latitude': -27.20338, 'Longitude': 152.95923, 'Population': 18217}
{'Name': 'Mulgrave', 'Latitude': -37.92845, 'Longitude': 145.17708, 'Population': 17647}
{'Name': 'Mount Waverley', 'Latitude': -37.87709, 'Longitude': 145.12939, 'Population': 33149}
{'Name': 'Mount Martha', 'Latitude': -38.26667, 'Longitude': 145.01667, 'Population': 17788}
{'Name': 'Mount Gambier', 'Latitude': -37.8318, 'Longitude': 140.77919, 'Population': 25030}
{'Name': 'Mount Eliza', 'Latitude': -38.18333, 'Longitude': 145.08333, 'Population': 17358}
{'Name': 'Mount Druitt', 'Latitude': -33.76667, 'Longitude': 150.81667, 'Population': 16682}
{'Name': 'Mosman', 'Latitude': -33.83902, 'Longitude': 151.23956, 'Population': 27844}
{'Name': 'Mornington', 'Latitude': -38.21792, 'Longitude': 145.03876, 'Population': 23245}
{'Name': 'Morayfield', 'Latitude': -27.10876, 'Longitude': 152.94907, 'Population': 21221}
{'Name': 'South Morang', 'Latitude': -37.65, 'Longitude': 145.1, 'Population': 23874}
{'Name': 'Mooroolbark', 'Latitude': -37.78247, 'Longitude': 145.31682, 'Population': 21503}
{'Name': 'Mitcham', 'Latitude': -37.81667, 'Longitude': 145.2, 'Population': 15861}
{'Name': 'Miranda', 'Latitude': -34.03857, 'Longitude': 151.10005, 'Population': 15111}
{'Name': 'Mill Park', 'Latitude': -37.66667, 'Longitude': 145.06667, 'Population': 29474}
{'Name': 'Mildura', 'Latitude': -34.18551, 'Longitude': 142.16251, 'Population': 32936}
{'Name': 'Merrylands', 'Latitude': -33.83333, 'Longitude': 150.98333, 'Population': 29508}
{'Name': 'Mernda', 'Latitude': -37.60075, 'Longitude': 145.09555, 'Population': 16370}
{'Name': 'Melbourne', 'Latitude': -37.814, 'Longitude': 144.96332, 'Population': 4246375}
{'Name': 'Mascot', 'Latitude': -33.92598, 'Longitude': 151.19347, 'Population': 15985}
{'Name': 'Maryborough', 'Latitude': -25.54073, 'Longitude': 152.70493, 'Population': 15479}
{'Name': 'Marrickville', 'Latitude': -33.90741, 'Longitude': 151.15546, 'Population': 26140}
{'Name': 'Maroubra', 'Latitude': -33.95, 'Longitude': 151.23333, 'Population': 30224}
{'Name': 'Manly', 'Latitude': -33.79798, 'Longitude': 151.28826, 'Population': 16170}
{'Name': 'Maitland', 'Latitude': -32.73308, 'Longitude': 151.5574, 'Population': 67132}
{'Name': 'Mackay', 'Latitude': -21.15345, 'Longitude': 149.16554, 'Population': 74219}
{'Name': 'Liverpool', 'Latitude': -33.91938, 'Longitude': 150.92588, 'Population': 27545}
{'Name': 'Lilydale', 'Latitude': -37.75, 'Longitude': 145.35, 'Population': 16209}
{'Name': 'Lidcombe', 'Latitude': -33.86436, 'Longitude': 151.0397, 'Population': 19791}
{'Name': 'Launceston', 'Latitude': -41.43876, 'Longitude': 147.13467, 'Population': 106153}
{'Name': 'Lara', 'Latitude': -38.02388, 'Longitude': 144.40617, 'Population': 15919}
{'Name': 'Langwarrin', 'Latitude': -38.16667, 'Longitude': 145.16667, 'Population': 22146}
{'Name': 'Lalor', 'Latitude': -37.66667, 'Longitude': 145.01667, 'Population': 22413}
{'Name': 'Lakemba', 'Latitude': -33.91972, 'Longitude': 151.07592, 'Population': 16921}
{'Name': 'Kogarah', 'Latitude': -33.9681, 'Longitude': 151.13564, 'Population': 15705}
{'Name': 'Keysborough', 'Latitude': -37.99116, 'Longitude': 145.17385, 'Population': 25637}
{'Name': 'Kew', 'Latitude': -37.80639, 'Longitude': 145.03086, 'Population': 24491}
{'Name': 'Kensington', 'Latitude': -33.92019, 'Longitude': 151.22241, 'Population': 15021}
{'Name': 'Hornsby', 'Latitude': -33.70244, 'Longitude': 151.09931, 'Population': 22335}
{'Name': 'Hobart', 'Latitude': -42.87936, 'Longitude': 147.32941, 'Population': 216656}
{'Name': 'Hawthorn South', 'Latitude': -37.8329, 'Longitude': 145.0367, 'Population': 21177}
{'Name': 'Hawthorn', 'Latitude': -37.81992, 'Longitude': 145.0358, 'Population': 23051}
{'Name': 'Hampton Park', 'Latitude': -38.03333, 'Longitude': 145.25, 'Population': 25377}
{'Name': 'Griffith', 'Latitude': -34.28853, 'Longitude': 146.05093, 'Population': 18154}
{'Name': 'Greenvale', 'Latitude': -37.63333, 'Longitude': 144.86667, 'Population': 15338}
{'Name': 'Greensborough', 'Latitude': -37.70462, 'Longitude': 145.10302, 'Population': 20407}
{'Name': 'Granville', 'Latitude': -33.8406, 'Longitude': 151.00748, 'Population': 22889}
{'Name': 'Goulburn', 'Latitude': -34.75155, 'Longitude': 149.72086, 'Population': 22645}
{'Name': 'Gold Coast', 'Latitude': -28.00029, 'Longitude': 153.43088, 'Population': 591473}
{'Name': 'Glen Waverley', 'Latitude': -37.87811, 'Longitude': 145.16476, 'Population': 40238}
{'Name': 'Glenroy', 'Latitude': -37.7, 'Longitude': 144.93333, 'Population': 22127}
{'Name': 'Glen Iris', 'Latitude': -37.86667, 'Longitude': 145.06667, 'Population': 24838}
{'Name': 'Glenferrie', 'Latitude': -37.83333, 'Longitude': 145.05, 'Population': 21177}
{'Name': 'Gladstone', 'Latitude': -23.84852, 'Longitude': 151.25775, 'Population': 30489}
{'Name': 'Geelong', 'Latitude': -38.14711, 'Longitude': 144.36069, 'Population': 226034}
{'Name': 'Frankston East', 'Latitude': -38.13333, 'Longitude': 145.13333, 'Population': 34457}
{'Name': 'Frankston', 'Latitude': -38.14458, 'Longitude': 145.12291, 'Population': 36239}
{'Name': 'Footscray', 'Latitude': -37.8, 'Longitude': 144.9, 'Population': 16550}
{'Name': 'Fairfield', 'Latitude': -33.86667, 'Longitude': 150.95, 'Population': 17932}
{'Name': 'Essendon', 'Latitude': -37.74981, 'Longitude': 144.9109, 'Population': 20310}
{'Name': 'Epping', 'Latitude': -37.65, 'Longitude': 145.03333, 'Population': 32696}
{'Name': 'Epping', 'Latitude': -33.77271, 'Longitude': 151.08184, 'Population': 23435}
{'Name': 'Engadine', 'Latitude': -34.06564, 'Longitude': 151.01266, 'Population': 17141}
{'Name': 'Eltham', 'Latitude': -37.73333, 'Longitude': 145.15, 'Population': 17829}
{'Name': 'Eight Mile Plains', 'Latitude': -27.58333, 'Longitude': 153.1, 'Population': 15364}
{'Name': 'Eastwood', 'Latitude': -33.79176, 'Longitude': 151.08057, 'Population': 17792}
{'Name': 'Earlwood', 'Latitude': -33.9209, 'Longitude': 151.12506, 'Population': 17592}
{'Name': 'Dubbo', 'Latitude': -32.24295, 'Longitude': 148.60484, 'Population': 39863}
{'Name': 'Doreen', 'Latitude': -37.6, 'Longitude': 145.15, 'Population': 20954}
{'Name': 'Doncaster East', 'Latitude': -37.78761, 'Longitude': 145.14888, 'Population': 28016}
{'Name': 'Doncaster', 'Latitude': -37.78828, 'Longitude': 145.12373, 'Population': 20728}
{'Name': 'Deer Park', 'Latitude': -37.76722, 'Longitude': 144.76657, 'Population': 17980}
{'Name': 'Deception Bay', 'Latitude': -27.19354, 'Longitude': 153.02631, 'Population': 19539}
{'Name': 'Dandenong', 'Latitude': -37.98333, 'Longitude': 145.2, 'Population': 30193}
{'Name': 'Croydon', 'Latitude': -37.8, 'Longitude': 145.28333, 'Population': 26502}
{'Name': 'Cronulla', 'Latitude': -34.06251, 'Longitude': 151.14961, 'Population': 17703}
{'Name': 'Cranbourne', 'Latitude': -38.11342, 'Longitude': 145.28326, 'Population': 19825}
{'Name': 'Craigieburn', 'Latitude': -37.6, 'Longitude': 144.95, 'Population': 50069}
{'Name': 'Corio', 'Latitude': -38.08333, 'Longitude': 144.38333, 'Population': 15215}
{'Name': 'Coorparoo', 'Latitude': -27.49325, 'Longitude': 153.05826, 'Population': 15965}
{'Name': 'Coogee', 'Latitude': -33.9205, 'Longitude': 151.25522, 'Population': 15333}
{'Name': 'Coffs Harbour', 'Latitude': -30.29626, 'Longitude': 153.11351, 'Population': 26672}
{'Name': 'Coburg', 'Latitude': -37.75, 'Longitude': 144.96667, 'Population': 25846}
{'Name': 'Clayton', 'Latitude': -37.91667, 'Longitude': 145.11667, 'Population': 20130}
{'Name': 'Wollongong', 'Latitude': -34.424, 'Longitude': 150.89345, 'Population': 292190}
{'Name': 'Chatswood', 'Latitude': -33.8, 'Longitude': 151.18333, 'Population': 25140}
{'Name': 'Cessnock', 'Latitude': -32.83211, 'Longitude': 151.35623, 'Population': 15076}
{'Name': 'Castle Hill', 'Latitude': -33.73333, 'Longitude': 151.0, 'Population': 39284}
{'Name': 'Carrum Downs', 'Latitude': -38.09968, 'Longitude': 145.17248, 'Population': 20444}
{'Name': 'Carnegie', 'Latitude': -37.89359, 'Longitude': 145.05534, 'Population': 17121}
{'Name': 'Carlton', 'Latitude': -37.8, 'Longitude': 144.96667, 'Population': 18829}
{'Name': 'Carlingford', 'Latitude': -33.78269, 'Longitude': 151.04888, 'Population': 24131}
{'Name': 'Capalaba', 'Latitude': -27.54333, 'Longitude': 153.20287, 'Population': 17027}
{'Name': 'Canberra', 'Latitude': -35.28346, 'Longitude': 149.12807, 'Population': 367752}
{'Name': 'Camberwell', 'Latitude': -37.84205, 'Longitude': 145.0694, 'Population': 21744}
{'Name': 'Cairns', 'Latitude': -16.92366, 'Longitude': 145.76613, 'Population': 153075}
{'Name': 'Caboolture', 'Latitude': -27.08465, 'Longitude': 152.9511, 'Population': 26341}
{'Name': 'Burwood', 'Latitude': -33.88333, 'Longitude': 151.1, 'Population': 15935}
{'Name': 'Burnie', 'Latitude': -41.05584, 'Longitude': 145.90375, 'Population': 19972}
{'Name': 'Bundaberg', 'Latitude': -24.86621, 'Longitude': 152.3479, 'Population': 70826}
{'Name': 'Buderim', 'Latitude': -26.68443, 'Longitude': 153.05705, 'Population': 28774}
{'Name': 'Brunswick', 'Latitude': -37.76667, 'Longitude': 144.96667, 'Population': 24176}
{'Name': 'Broken Hill', 'Latitude': -31.9652, 'Longitude': 141.4512, 'Population': 18027}
{'Name': 'Brisbane', 'Latitude': -27.46794, 'Longitude': 153.02809, 'Population': 2189878}
{'Name': 'Brighton', 'Latitude': -37.90561, 'Longitude': 145.00279, 'Population': 22742}
{'Name': 'Boronia', 'Latitude': -37.86667, 'Longitude': 145.28333, 'Population': 21857}
{'Name': 'Blacktown', 'Latitude': -33.76667, 'Longitude': 150.91667, 'Population': 46942}
{'Name': 'Bexley', 'Latitude': -33.95, 'Longitude': 151.11667, 'Population': 19664}
{'Name': 'Berwick', 'Latitude': -38.03333, 'Longitude': 145.35, 'Population': 47074}
{'Name': 'Bentleigh East', 'Latitude': -37.91928, 'Longitude': 145.05301, 'Population': 27368}
{'Name': 'Bentleigh', 'Latitude': -37.91806, 'Longitude': 145.03544, 'Population': 15892}
{'Name': 'Bendigo', 'Latitude': -36.75818, 'Longitude': 144.28024, 'Population': 100617}
{'Name': 'Baulkham Hills', 'Latitude': -33.75881, 'Longitude': 150.99292, 'Population': 36792}
{'Name': 'Bathurst', 'Latitude': -33.41665, 'Longitude': 149.5806, 'Population': 33110}
{'Name': 'Banora Point', 'Latitude': -28.21298, 'Longitude': 153.53634, 'Population': 15868}
{'Name': 'Bankstown', 'Latitude': -33.91667, 'Longitude': 151.03333, 'Population': 32399}
{'Name': 'Ballarat', 'Latitude': -37.56622, 'Longitude': 143.84957, 'Population': 97937}
{'Name': 'Auburn', 'Latitude': -33.85, 'Longitude': 151.03333, 'Population': 37245}
{'Name': 'Ashfield', 'Latitude': -33.88834, 'Longitude': 151.12274, 'Population': 23749}
{'Name': 'Armidale', 'Latitude': -30.50123, 'Longitude': 151.66553, 'Population': 23741}
{'Name': 'Albany Creek', 'Latitude': -27.35364, 'Longitude': 152.96848, 'Population': 15532}
{'Name': 'Maroochydore', 'Latitude': -26.66008, 'Longitude': 153.09953, 'Population': 18342}
{'Name': 'Cheltenham', 'Latitude': -37.96944, 'Longitude': 145.04806, 'Population': 21837}
{'Name': 'Randwick', 'Latitude': -33.91439, 'Longitude': 151.24895, 'Population': 30532}
{'Name': 'Dee Why', 'Latitude': -33.7511, 'Longitude': 151.28886, 'Population': 21145}
{'Name': 'Umina Beach', 'Latitude': -33.52314, 'Longitude': 151.31325, 'Population': 16413}
{'Name': 'Palmerston', 'Latitude': -12.48602, 'Longitude': 130.9833, 'Population': 25000}
{'Name': 'Hervey Bay', 'Latitude': -25.28762, 'Longitude': 152.76936, 'Population': 52230}
{'Name': 'Sydney Central Business District', 'Latitude': -33.86482, 'Longitude': 151.20773, 'Population': 25654}
{'Name': 'Kingsford', 'Latitude': -33.92399, 'Longitude': 151.22749, 'Population': 15338}
{'Name': 'Springfield Lakes', 'Latitude': -27.66757, 'Longitude': 152.92488, 'Population': 15081}
{'Name': 'Bracken Ridge', 'Latitude': -27.3171, 'Longitude': 153.03097, 'Population': 16701}
{'Name': 'Kallangur', 'Latitude': -27.25204, 'Longitude': 152.99226, 'Population': 20222}
{'Name': 'North Lakes', 'Latitude': -27.22426, 'Longitude': 153.02075, 'Population': 21260}
{'Name': 'The Gap', 'Latitude': -27.44187, 'Longitude': 152.93861, 'Population': 16371}
{'Name': 'Caroline Springs', 'Latitude': -37.74124, 'Longitude': 144.73631, 'Population': 24077}
{'Name': 'Hoppers Crossing', 'Latitude': -37.88264, 'Longitude': 144.7003, 'Population': 38178}
{'Name': 'Logan City', 'Latitude': -27.63917, 'Longitude': 153.10944, 'Population': 282673}
{'Name': 'Carindale', 'Latitude': -27.50578, 'Longitude': 153.10236, 'Population': 15418}
{'Name': 'Parramatta', 'Latitude': -33.8178, 'Longitude': 151.00348, 'Population': 26876}
{'Name': 'Ferntree Gully', 'Latitude': -37.88461, 'Longitude': 145.29539, 'Population': 26019}
{'Name': 'Adelaide Hills', 'Latitude': -34.91119, 'Longitude': 138.70735, 'Population': 60394}
{'Name': 'Canning Vale', 'Latitude': -32.05799, 'Longitude': 115.91814, 'Population': 32593}
{'Name': 'Glenmore Park', 'Latitude': -33.79068, 'Longitude': 150.6693, 'Population': 22863}
{'Name': 'Southbank', 'Latitude': -37.8228, 'Longitude': 144.96434, 'Population': 22397}
{'Name': 'Helensvale', 'Latitude': -27.91828, 'Longitude': 153.33275, 'Population': 16839}
{'Name': 'Melton West', 'Latitude': -37.67852, 'Longitude': 144.56883, 'Population': 17477}
{'Name': 'Elwood', 'Latitude': -37.88214, 'Longitude': 144.98215, 'Population': 15122}
{'Name': 'Balwyn North', 'Latitude': -37.79086, 'Longitude': 145.09386, 'Population': 20015}
{'Name': 'Malvern East', 'Latitude': -37.87397, 'Longitude': 145.04253, 'Population': 21282}
{'Name': 'Brighton East', 'Latitude': -37.90232, 'Longitude': 145.01734, 'Population': 15644}
{'Name': 'Redbank Plains', 'Latitude': -27.64613, 'Longitude': 152.85965, 'Population': 19094}
{'Name': 'Labrador', 'Latitude': -27.94402, 'Longitude': 153.39815, 'Population': 18326}
{'Name': 'St Albans', 'Latitude': -37.74496, 'Longitude': 144.80049, 'Population': 37629}
{'Name': 'Endeavour Hills', 'Latitude': -37.97695, 'Longitude': 145.25866, 'Population': 24116}
{'Name': 'Kellyville', 'Latitude': -33.71028, 'Longitude': 150.95095, 'Population': 27676}
{'Name': 'Taylors Lakes', 'Latitude': -37.69863, 'Longitude': 144.78631, 'Population': 15422}
{'Name': 'Cherrybrook', 'Latitude': -33.72197, 'Longitude': 151.04607, 'Population': 18588}
{'Name': 'Roxburgh Park', 'Latitude': -37.62581, 'Longitude': 144.92555, 'Population': 21742}
{'Name': 'Prestons', 'Latitude': -33.94185, 'Longitude': 150.8717, 'Population': 15312}
{'Name': 'Wyndham Vale', 'Latitude': -37.89138, 'Longitude': 144.62368, 'Population': 23093}
{'Name': 'Ballajura', 'Latitude': -31.84062, 'Longitude': 115.89549, 'Population': 18408}
{'Name': 'Willetton', 'Latitude': -32.05251, 'Longitude': 115.88782, 'Population': 17887}
{'Name': 'Glenwood', 'Latitude': -33.73333, 'Longitude': 150.93284, 'Population': 16040}
{'Name': 'Cabramatta', 'Latitude': -33.89743, 'Longitude': 150.93446, 'Population': 21634}
{'Name': 'Campsie', 'Latitude': -33.9125, 'Longitude': 151.10279, 'Population': 24487}
{'Name': 'Casula', 'Latitude': -33.95222, 'Longitude': 150.89949, 'Population': 15695}
{'Name': 'Cranebrook', 'Latitude': -33.7061, 'Longitude': 150.7094, 'Population': 15649}
{'Name': 'Greenacre', 'Latitude': -33.90034, 'Longitude': 151.05563, 'Population': 24361}
{'Name': 'Greystanes', 'Latitude': -33.82346, 'Longitude': 150.94607, 'Population': 22591}
{'Name': 'Ellenbrook', 'Latitude': -31.76737, 'Longitude': 115.96936, 'Population': 22209}
{'Name': 'Alexandra Hills', 'Latitude': -27.53221, 'Longitude': 153.22889, 'Population': 16043}
{'Name': 'Calamvale', 'Latitude': -27.62329, 'Longitude': 153.04785, 'Population': 16927}
{'Name': 'Yagoona', 'Latitude': -33.9049, 'Longitude': 151.01996, 'Population': 17908}
{'Name': 'Highton', 'Latitude': -38.17058, 'Longitude': 144.3114, 'Population': 18388}
{'Name': 'Pacific Pines', 'Latitude': -27.93994, 'Longitude': 153.31436, 'Population': 16605}
{'Name': 'Robina', 'Latitude': -28.07071, 'Longitude': 153.39329, 'Population': 23140}
{'Name': 'Paralowie', 'Latitude': -34.75705, 'Longitude': 138.60819, 'Population': 16386}
{'Name': 'Baldivis', 'Latitude': -32.32889, 'Longitude': 115.83047, 'Population': 30472}
{'Name': 'Dianella', 'Latitude': -31.88822, 'Longitude': 115.87186, 'Population': 23034}
{'Name': 'Morley', 'Latitude': -31.88775, 'Longitude': 115.9099, 'Population': 21134}
{'Name': 'Thornlie', 'Latitude': -32.06003, 'Longitude': 115.955, 'Population': 22779}
{'Name': 'Punchbowl', 'Latitude': -33.92893, 'Longitude': 151.05111, 'Population': 20174}
{'Name': 'Parafield Gardens', 'Latitude': -34.78254, 'Longitude': 138.61077, 'Population': 16872}
{'Name': 'Hillside', 'Latitude': -37.69047, 'Longitude': 144.74172, 'Population': 16976}
{'Name': 'St Clair', 'Latitude': -33.79728, 'Longitude': 150.7847, 'Population': 19856}
{'Name': 'Kirwan', 'Latitude': -19.30323, 'Longitude': 146.72531, 'Population': 21034}
{'Name': 'Bundoora', 'Latitude': -37.69825, 'Longitude': 145.05967, 'Population': 28828}
{'Name': 'Forest Lake', 'Latitude': -27.62563, 'Longitude': 152.96883, 'Population': 22581}
{'Name': 'Sunnybank Hills', 'Latitude': -27.61025, 'Longitude': 153.05388, 'Population': 17842}
{'Name': 'Rochedale South', 'Latitude': -27.59521, 'Longitude': 153.12332, 'Population': 15073}
{'Name': 'Cranbourne East', 'Latitude': -38.11531, 'Longitude': 145.29814, 'Population': 15994}
{'Name': 'Cranbourne North', 'Latitude': -38.07758, 'Longitude': 145.29871, 'Population': 19900}
{'Name': 'Narre Warren South', 'Latitude': -38.04369, 'Longitude': 145.2923, 'Population': 30132}
{'Name': 'Dandenong North', 'Latitude': -37.96649, 'Longitude': 145.2081, 'Population': 22225}
{'Name': 'Frankston South', 'Latitude': -38.16604, 'Longitude': 145.13643, 'Population': 17826}
{'Name': 'Sunshine West', 'Latitude': -37.79117, 'Longitude': 144.81637, 'Population': 18568}
{'Name': 'Altona Meadows', 'Latitude': -37.88413, 'Longitude': 144.78367, 'Population': 18874}
{'Name': 'Hurstville', 'Latitude': -33.9677, 'Longitude': 151.10149, 'Population': 29744}
{'Name': 'West Pennant Hills', 'Latitude': -33.7457, 'Longitude': 151.04764, 'Population': 16162}
{'Name': 'Melbourne City Centre', 'Latitude': -37.81501, 'Longitude': 144.96657, 'Population': 60057}
{'Name': 'Adelaide city centre', 'Latitude': -34.92873, 'Longitude': 138.60334, 'Population': 19820}
{'Name': 'Wollongong city centre', 'Latitude': -34.4279, 'Longitude': 150.89268, 'Population': 19108}
{'Name': 'Tanki Leendert', 'Latitude': 12.53914, 'Longitude': -70.02004, 'Population': 21500}
{'Name': 'San Nicolas', 'Latitude': 12.43624, 'Longitude': -69.90713, 'Population': 15200}
{'Name': 'Oranjestad', 'Latitude': 12.52398, 'Longitude': -70.02703, 'Population': 29998}
{'Name': 'Mariehamn', 'Latitude': 60.09726, 'Longitude': 19.93481, 'Population': 10682}
{'Name': 'Xankandi', 'Latitude': 39.8177, 'Longitude': 46.7528, 'Population': 53100}
{'Name': 'Əhmədbəyli', 'Latitude': 39.88074, 'Longitude': 48.39158, 'Population': 17242}
{'Name': 'Shushi', 'Latitude': 39.76006, 'Longitude': 46.74989, 'Population': 18662}
{'Name': 'Salyan', 'Latitude': 39.59621, 'Longitude': 48.98479, 'Population': 36555}
{'Name': 'Saatlı', 'Latitude': 39.93214, 'Longitude': 48.36892, 'Population': 87000}
{'Name': 'Neftçala', 'Latitude': 39.3768, 'Longitude': 49.247, 'Population': 18661}
{'Name': 'Nakhchivan', 'Latitude': 39.20889, 'Longitude': 45.41222, 'Population': 64754}
{'Name': 'Lankaran', 'Latitude': 38.75428, 'Longitude': 48.85062, 'Population': 240300}
{'Name': 'Imishli', 'Latitude': 39.87095, 'Longitude': 48.05995, 'Population': 34178}
{'Name': 'Fizuli', 'Latitude': 39.60094, 'Longitude': 47.14529, 'Population': 26765}
{'Name': 'Jalilabad', 'Latitude': 39.20963, 'Longitude': 48.49186, 'Population': 36259}
{'Name': 'Pushkino', 'Latitude': 39.45833, 'Longitude': 48.545, 'Population': 18182}
{'Name': 'Beylagan', 'Latitude': 39.77556, 'Longitude': 47.61861, 'Population': 15599}
{'Name': 'Astara', 'Latitude': 38.45598, 'Longitude': 48.87498, 'Population': 15190}
{'Name': 'Şirvan', 'Latitude': 39.93778, 'Longitude': 48.929, 'Population': 70220}
{'Name': 'Ağdam', 'Latitude': 39.99096, 'Longitude': 46.92736, 'Population': 39451}
{'Name': 'Zaqatala', 'Latitude': 41.6316, 'Longitude': 46.64479, 'Population': 18277}
{'Name': 'Zabrat', 'Latitude': 40.47746, 'Longitude': 49.94174, 'Population': 21396}
{'Name': 'Yevlakh', 'Latitude': 40.61832, 'Longitude': 47.15014, 'Population': 127400}
{'Name': 'Yelenendorf', 'Latitude': 40.58584, 'Longitude': 46.3189, 'Population': 17816}
{'Name': 'Xaçmaz', 'Latitude': 41.46426, 'Longitude': 48.80565, 'Population': 37175}
{'Name': 'Ujar', 'Latitude': 40.51902, 'Longitude': 47.65423, 'Population': 15741}
{'Name': 'Terter', 'Latitude': 40.34201, 'Longitude': 46.93161, 'Population': 18185}
{'Name': 'Sumqayıt', 'Latitude': 40.58972, 'Longitude': 49.66861, 'Population': 265150}
{'Name': 'Qaraçuxur', 'Latitude': 40.39667, 'Longitude': 49.97361, 'Population': 72989}
{'Name': 'Shamkhor', 'Latitude': 40.82975, 'Longitude': 46.0178, 'Population': 35421}
{'Name': 'Shamakhi', 'Latitude': 40.63141, 'Longitude': 48.64137, 'Population': 29403}
{'Name': 'Sheki', 'Latitude': 41.19194, 'Longitude': 47.17056, 'Population': 63000}
{'Name': 'Sabunçu', 'Latitude': 40.4425, 'Longitude': 49.94806, 'Population': 20996}
{'Name': 'Sabirabad', 'Latitude': 40.00869, 'Longitude': 48.47701, 'Population': 28075}
{'Name': 'Qusar', 'Latitude': 41.4275, 'Longitude': 48.4302, 'Population': 16022}
{'Name': 'Quba', 'Latitude': 41.36108, 'Longitude': 48.51341, 'Population': 22405}
{'Name': 'Hacıqabul', 'Latitude': 40.03874, 'Longitude': 48.94286, 'Population': 23102}
{'Name': 'Qazax', 'Latitude': 41.09246, 'Longitude': 45.36561, 'Population': 18903}
{'Name': 'Hacı Zeynalabdin', 'Latitude': 40.62333, 'Longitude': 49.55861, 'Population': 19019}
{'Name': 'Mingelchaur', 'Latitude': 40.76395, 'Longitude': 47.05953, 'Population': 95453}
{'Name': 'Maştağa', 'Latitude': 40.52983, 'Longitude': 50.00616, 'Population': 40092}
{'Name': 'Mardakan', 'Latitude': 40.49182, 'Longitude': 50.14292, 'Population': 15267}
{'Name': 'Lökbatan', 'Latitude': 40.3256, 'Longitude': 49.73376, 'Population': 30694}
{'Name': 'Kyurdarmir', 'Latitude': 40.34257, 'Longitude': 48.15649, 'Population': 19088}
{'Name': 'Khirdalan', 'Latitude': 40.44808, 'Longitude': 49.75502, 'Population': 37949}
{'Name': 'Yeni Suraxanı', 'Latitude': 40.43026, 'Longitude': 50.03598, 'Population': 16127}
{'Name': 'Geoktschai', 'Latitude': 40.65055, 'Longitude': 47.74219, 'Population': 35348}
{'Name': 'Hövsan', 'Latitude': 40.37444, 'Longitude': 50.08528, 'Population': 36293}
{'Name': 'Ganja', 'Latitude': 40.68278, 'Longitude': 46.36056, 'Population': 313300}
{'Name': 'Divichibazar', 'Latitude': 41.20117, 'Longitude': 48.98712, 'Population': 23248}
{'Name': 'Buzovna', 'Latitude': 40.51903, 'Longitude': 50.11438, 'Population': 24795}
{'Name': 'Biny Selo', 'Latitude': 40.45076, 'Longitude': 50.08686, 'Population': 24596}
{'Name': 'Barda', 'Latitude': 40.37577, 'Longitude': 47.12619, 'Population': 37372}
{'Name': 'Bilajari', 'Latitude': 40.4444, 'Longitude': 49.80566, 'Population': 42194}
{'Name': 'Baku', 'Latitude': 40.37767, 'Longitude': 49.89201, 'Population': 1116513}
{'Name': 'Amirdzhan', 'Latitude': 40.42639, 'Longitude': 49.98361, 'Population': 26798}
{'Name': 'Aghsu', 'Latitude': 40.57028, 'Longitude': 48.40087, 'Population': 17209}
{'Name': 'Ağdaş', 'Latitude': 40.64699, 'Longitude': 47.4738, 'Population': 23528}
{'Name': 'Agdzhabedy', 'Latitude': 40.05015, 'Longitude': 47.45937, 'Population': 34989}
{'Name': 'Bakıxanov', 'Latitude': 40.41894, 'Longitude': 49.96693, 'Population': 66686}
{'Name': 'Zenica', 'Latitude': 44.20169, 'Longitude': 17.90397, 'Population': 164423}
{'Name': 'Visoko', 'Latitude': 43.98889, 'Longitude': 18.17806, 'Population': 17890}
{'Name': 'Velika Kladuša', 'Latitude': 45.18497, 'Longitude': 15.80579, 'Population': 19330}
{'Name': 'Tuzla', 'Latitude': 44.53842, 'Longitude': 18.66709, 'Population': 142486}
{'Name': 'Trebinje', 'Latitude': 42.71197, 'Longitude': 18.34362, 'Population': 33178}
{'Name': 'Travnik', 'Latitude': 44.22637, 'Longitude': 17.66583, 'Population': 31127}
{'Name': 'Sarajevo', 'Latitude': 43.84864, 'Longitude': 18.35644, 'Population': 696731}
{'Name': 'Prijedor', 'Latitude': 44.97991, 'Longitude': 16.71401, 'Population': 36347}
{'Name': 'Mostar', 'Latitude': 43.34333, 'Longitude': 17.80806, 'Population': 104518}
{'Name': 'Gradačac', 'Latitude': 44.87851, 'Longitude': 18.42764, 'Population': 15659}
{'Name': 'Gračanica', 'Latitude': 44.70307, 'Longitude': 18.3101, 'Population': 15758}
{'Name': 'Goražde', 'Latitude': 43.66795, 'Longitude': 18.97564, 'Population': 17650}
{'Name': 'Doboj', 'Latitude': 44.73179, 'Longitude': 18.08698, 'Population': 27235}
{'Name': 'Cazin', 'Latitude': 44.96694, 'Longitude': 15.94306, 'Population': 21741}
{'Name': 'Bugojno', 'Latitude': 44.05722, 'Longitude': 17.45083, 'Population': 41378}
{'Name': 'Brčko', 'Latitude': 44.86995, 'Longitude': 18.81012, 'Population': 38968}
{'Name': 'Bosanska Krupa', 'Latitude': 44.8825, 'Longitude': 16.15139, 'Population': 15193}
{'Name': 'Bijeljina', 'Latitude': 44.75874, 'Longitude': 19.21437, 'Population': 37692}
{'Name': 'Bihać', 'Latitude': 44.81694, 'Longitude': 15.87083, 'Population': 75641}
{'Name': 'Banja Luka', 'Latitude': 44.77842, 'Longitude': 17.19386, 'Population': 221106}
{'Name': 'Konjic', 'Latitude': 43.65126, 'Longitude': 17.96082, 'Population': 15950}
{'Name': 'Bridgetown', 'Latitude': 13.10732, 'Longitude': -59.62021, 'Population': 98511}
{'Name': 'Thākurgaon', 'Latitude': 26.03097, 'Longitude': 88.46989, 'Population': 71096}
{'Name': 'Teknāf', 'Latitude': 20.85829, 'Longitude': 92.29773, 'Population': 40557}
{'Name': 'Tungi', 'Latitude': 23.89154, 'Longitude': 90.40232, 'Population': 337579}
{'Name': 'Sylhet', 'Latitude': 24.89904, 'Longitude': 91.87198, 'Population': 237000}
{'Name': 'Dohār', 'Latitude': 23.59311, 'Longitude': 90.14251, 'Population': 45543}
{'Name': 'Jamālpur', 'Latitude': 24.91965, 'Longitude': 89.94812, 'Population': 167900}
{'Name': 'Shibganj', 'Latitude': 25.00146, 'Longitude': 89.32266, 'Population': 378701}
{'Name': 'Shibganj', 'Latitude': 24.68501, 'Longitude': 88.15638, 'Population': 35961}
{'Name': 'Sātkhira', 'Latitude': 22.70817, 'Longitude': 89.07185, 'Population': 128918}
{'Name': 'Sirajganj', 'Latitude': 24.45771, 'Longitude': 89.70802, 'Population': 127481}
{'Name': 'Netrakona', 'Latitude': 24.88352, 'Longitude': 90.72898, 'Population': 79016}
{'Name': 'Narsingdi', 'Latitude': 23.92298, 'Longitude': 90.71768, 'Population': 281080}
{'Name': 'Sandwīp', 'Latitude': 22.51409, 'Longitude': 91.45491, 'Population': 52152}
{'Name': 'Shāhzādpur', 'Latitude': 24.17687, 'Longitude': 89.5988, 'Population': 102420}
{'Name': 'Rāmganj', 'Latitude': 23.1006, 'Longitude': 90.84989, 'Population': 55241}
{'Name': 'Rājshāhi', 'Latitude': 24.374, 'Longitude': 88.60114, 'Population': 700133}
{'Name': 'Pirojpur', 'Latitude': 22.57965, 'Longitude': 89.97521, 'Population': 54418}
{'Name': 'Panchagarh', 'Latitude': 26.33338, 'Longitude': 88.55777, 'Population': 48531}
{'Name': 'Patiya', 'Latitude': 22.29543, 'Longitude': 91.979, 'Population': 51360}
{'Name': 'Parbatipur', 'Latitude': 25.66369, 'Longitude': 88.93093, 'Population': 48020}
{'Name': 'Nārāyanganj', 'Latitude': 23.61352, 'Longitude': 90.50298, 'Population': 223622}
{'Name': 'Nālchiti', 'Latitude': 22.63696, 'Longitude': 90.27195, 'Population': 38703}
{'Name': 'Nāgarpur', 'Latitude': 24.05783, 'Longitude': 89.87696, 'Population': 238422}
{'Name': 'Nageswari', 'Latitude': 25.96817, 'Longitude': 89.69153, 'Population': 49425}
{'Name': 'Mymensingh', 'Latitude': 24.75636, 'Longitude': 90.40646, 'Population': 225126}
{'Name': 'Muktāgācha', 'Latitude': 24.76484, 'Longitude': 90.25698, 'Population': 24684}
{'Name': 'Mirzāpur', 'Latitude': 24.10287, 'Longitude': 90.09841, 'Population': 41137}
{'Name': 'Maulavi Bāzār', 'Latitude': 24.48888, 'Longitude': 91.77075, 'Population': 57441}
{'Name': 'Morrelgonj', 'Latitude': 22.45566, 'Longitude': 89.85584, 'Population': 31647}
{'Name': 'Mehendiganj', 'Latitude': 22.82257, 'Longitude': 90.52859, 'Population': 39424}
{'Name': 'Mathba', 'Latitude': 22.28616, 'Longitude': 89.95883, 'Population': 29760}
{'Name': 'Lalmonirhat', 'Latitude': 25.91719, 'Longitude': 89.44595, 'Population': 65127}
{'Name': 'Lākshām', 'Latitude': 23.24018, 'Longitude': 91.12143, 'Population': 82290}
{'Name': 'Comilla', 'Latitude': 23.46186, 'Longitude': 91.18503, 'Population': 389411}
{'Name': 'Rangpur', 'Latitude': 25.74664, 'Longitude': 89.25166, 'Population': 343122}
{'Name': 'Kushtia', 'Latitude': 23.9028, 'Longitude': 89.11943, 'Population': 135724}
{'Name': 'Kālīganj', 'Latitude': 23.40964, 'Longitude': 89.13801, 'Population': 45631}
{'Name': 'Jhingergācha', 'Latitude': 23.11134, 'Longitude': 89.09061, 'Population': 41957}
{'Name': 'Joypur Hāt', 'Latitude': 25.10147, 'Longitude': 89.02734, 'Population': 73068}
{'Name': 'Ishurdi', 'Latitude': 24.12858, 'Longitude': 89.06573, 'Population': 81995}
{'Name': 'Habiganj', 'Latitude': 24.38044, 'Longitude': 91.41299, 'Population': 88760}
{'Name': 'Gaurnadi', 'Latitude': 22.97372, 'Longitude': 90.22376, 'Population': 40519}
{'Name': 'Gafargaon', 'Latitude': 24.432, 'Longitude': 90.5585, 'Population': 34177}
{'Name': 'Feni', 'Latitude': 23.0144, 'Longitude': 91.3966, 'Population': 84028}
{'Name': 'Rāipur', 'Latitude': 23.0391, 'Longitude': 90.76808, 'Population': 64652}
{'Name': 'Sarankhola', 'Latitude': 22.31006, 'Longitude': 89.79113, 'Population': 36470}
{'Name': 'Dhaka', 'Latitude': 23.7104, 'Longitude': 90.40744, 'Population': 10356500}
{'Name': 'Chilmāri', 'Latitude': 25.55613, 'Longitude': 89.67097, 'Population': 49736}
{'Name': 'Chhāgalnāiya', 'Latitude': 23.02475, 'Longitude': 91.51091, 'Population': 39335}
{'Name': 'Lālmohan', 'Latitude': 22.33774, 'Longitude': 90.73708, 'Population': 42220}
{'Name': 'Khagrachhari', 'Latitude': 23.10787, 'Longitude': 91.97007, 'Population': 50364}
{'Name': 'Chhātak', 'Latitude': 25.03852, 'Longitude': 91.66958, 'Population': 39218}
{'Name': 'Bhātpāra Abhaynagar', 'Latitude': 23.01472, 'Longitude': 89.43936, 'Population': 42653}
{'Name': 'Bherāmāra', 'Latitude': 24.02452, 'Longitude': 88.99234, 'Population': 38159}
{'Name': 'Bhairab Bāzār', 'Latitude': 24.0524, 'Longitude': 90.9764, 'Population': 105457}
{'Name': 'Bāndarban', 'Latitude': 22.19534, 'Longitude': 92.21946, 'Population': 32523}
{'Name': 'Kālia', 'Latitude': 23.043, 'Longitude': 89.63094, 'Population': 40492}
{'Name': 'Baniachang', 'Latitude': 24.51863, 'Longitude': 91.35787, 'Population': 37807}
{'Name': 'Bājitpur', 'Latitude': 24.21623, 'Longitude': 90.95002, 'Population': 34560}
{'Name': 'Bagerhat', 'Latitude': 22.65657, 'Longitude': 89.79123, 'Population': 266388}
{'Name': 'Badarganj', 'Latitude': 25.67419, 'Longitude': 89.05377, 'Population': 32600}
{'Name': 'Narail', 'Latitude': 23.15509, 'Longitude': 89.49515, 'Population': 55112}
{'Name': 'Tungipāra', 'Latitude': 22.89983, 'Longitude': 89.90326, 'Population': 62210}
{'Name': 'Sonārgaon', 'Latitude': 23.65, 'Longitude': 90.61667, 'Population': 130000}
{'Name': 'Sarishābāri', 'Latitude': 24.75127, 'Longitude': 89.83126, 'Population': 81325}
{'Name': 'Sakhipur', 'Latitude': 24.31988, 'Longitude': 90.16943, 'Population': 40869}
{'Name': 'Raojān', 'Latitude': 22.53511, 'Longitude': 91.91919, 'Population': 25708}
{'Name': 'Phultala', 'Latitude': 22.71673, 'Longitude': 89.51194, 'Population': 37985}
{'Name': 'Pālang', 'Latitude': 23.21824, 'Longitude': 90.35076, 'Population': 67652}
{'Name': 'Pār Naogaon', 'Latitude': 24.80418, 'Longitude': 88.94875, 'Population': 192464}
{'Name': 'Nabīnagar', 'Latitude': 23.88791, 'Longitude': 90.96792, 'Population': 31671}
{'Name': 'Lakshmīpur', 'Latitude': 22.9443, 'Longitude': 90.83005, 'Population': 61703}
{'Name': 'Kesabpur', 'Latitude': 22.90725, 'Longitude': 89.21954, 'Population': 30926}
{'Name': 'Hājīganj', 'Latitude': 23.25191, 'Longitude': 90.85508, 'Population': 44343}
{'Name': 'Farīdpur', 'Latitude': 23.60612, 'Longitude': 89.84064, 'Population': 112187}
{'Name': 'Dinājpur', 'Latitude': 25.62745, 'Longitude': 88.63779, 'Population': 206234}
{'Name': 'Uttar Char Fasson', 'Latitude': 22.22647, 'Longitude': 90.71275, 'Population': 48305}
{'Name': 'Chittagong', 'Latitude': 22.3384, 'Longitude': 91.83168, 'Population': 3920222}
{'Name': 'Char Bhadrāsan', 'Latitude': 23.30916, 'Longitude': 90.22698, 'Population': 34423}
{'Name': 'Bera', 'Latitude': 24.07821, 'Longitude': 89.63262, 'Population': 39604}
{'Name': 'Burhānuddin', 'Latitude': 22.49518, 'Longitude': 90.72391, 'Population': 45670}
{'Name': 'Sātkania', 'Latitude': 22.07639, 'Longitude': 92.04955, 'Population': 52005}
{'Name': 'Cox’s Bāzār', 'Latitude': 21.43973, 'Longitude': 92.00955, 'Population': 253788}
{'Name': 'Khulna', 'Latitude': 22.80979, 'Longitude': 89.56439, 'Population': 1342339}
{'Name': 'Bhola', 'Latitude': 22.68759, 'Longitude': 90.64403, 'Population': 99079}
{'Name': 'Barisāl', 'Latitude': 22.70497, 'Longitude': 90.37013, 'Population': 202242}
{'Name': 'Jessore', 'Latitude': 23.16971, 'Longitude': 89.21371, 'Population': 243987}
{'Name': 'Pābna', 'Latitude': 24.00644, 'Longitude': 89.2372, 'Population': 186781}
{'Name': 'Tāngāil', 'Latitude': 24.24984, 'Longitude': 89.91655, 'Population': 180144}
{'Name': 'Bogra', 'Latitude': 24.85098, 'Longitude': 89.37108, 'Population': 210000}
{'Name': 'Pīrgaaj', 'Latitude': 25.85587, 'Longitude': 88.35943, 'Population': 34606}
{'Name': 'Nawābganj', 'Latitude': 24.59025, 'Longitude': 88.27444, 'Population': 142361}
{'Name': 'Mādārīpur', 'Latitude': 23.17097, 'Longitude': 90.20935, 'Population': 84789}
{'Name': 'Sherpur', 'Latitude': 25.01881, 'Longitude': 90.01751, 'Population': 107419}
{'Name': 'Kishorganj', 'Latitude': 24.43944, 'Longitude': 90.78291, 'Population': 90690}
{'Name': 'Manikchari', 'Latitude': 22.83957, 'Longitude': 91.84128, 'Population': 24813}
{'Name': 'Bhāndāria', 'Latitude': 22.48898, 'Longitude': 90.06273, 'Population': 30219}
{'Name': 'Bibir Hat', 'Latitude': 22.68347, 'Longitude': 91.79058, 'Population': 89030}
{'Name': 'Saidpur', 'Latitude': 25.77769, 'Longitude': 88.89169, 'Population': 199422}
{'Name': 'Puthia', 'Latitude': 24.36537, 'Longitude': 88.83431, 'Population': 159406}
{'Name': 'Natore', 'Latitude': 24.41112, 'Longitude': 88.98673, 'Population': 369138}
{'Name': 'Azimpur', 'Latitude': 23.7298, 'Longitude': 90.3854, 'Population': 96641}
{'Name': 'Paltan', 'Latitude': 23.73625, 'Longitude': 90.41426, 'Population': 184492}
{'Name': 'Joymontop', 'Latitude': 23.78789, 'Longitude': 90.16472, 'Population': 56000}
{'Name': 'Zwijndrecht', 'Latitude': 51.21979, 'Longitude': 4.32664, 'Population': 18249}
{'Name': 'Zwevegem', 'Latitude': 50.81268, 'Longitude': 3.33848, 'Population': 23358}
{'Name': 'Zottegem', 'Latitude': 50.86955, 'Longitude': 3.81052, 'Population': 24434}
{'Name': 'Zonhoven', 'Latitude': 50.99064, 'Longitude': 5.36819, 'Population': 19922}
{'Name': 'Zoersel', 'Latitude': 51.26825, 'Longitude': 4.71296, 'Population': 20642}
{'Name': 'Zemst', 'Latitude': 50.98318, 'Longitude': 4.46079, 'Population': 21096}
{'Name': 'Zele', 'Latitude': 51.06566, 'Longitude': 4.0403, 'Population': 20236}
{'Name': 'Zedelgem', 'Latitude': 51.14236, 'Longitude': 3.1368, 'Population': 21968}
{'Name': 'Zaventem', 'Latitude': 50.88365, 'Longitude': 4.47298, 'Population': 28188}
{'Name': 'Wuustwezel', 'Latitude': 51.39214, 'Longitude': 4.59546, 'Population': 18117}
{'Name': 'Willebroek', 'Latitude': 51.06041, 'Longitude': 4.36019, 'Population': 22808}
{'Name': 'Wevelgem', 'Latitude': 50.8, 'Longitude': 3.16667, 'Population': 30954}
{'Name': 'Wetteren', 'Latitude': 51.00526, 'Longitude': 3.88341, 'Population': 22930}
{'Name': 'Westerlo', 'Latitude': 51.09049, 'Longitude': 4.91544, 'Population': 22579}
{'Name': 'Wervik', 'Latitude': 50.78069, 'Longitude': 3.03854, 'Population': 17340}
{'Name': 'Wavre', 'Latitude': 50.71717, 'Longitude': 4.60138, 'Population': 32112}
{'Name': 'Waterloo', 'Latitude': 50.71469, 'Longitude': 4.3991, 'Population': 29778}
{'Name': 'Waregem', 'Latitude': 50.88898, 'Longitude': 3.42756, 'Population': 35896}
{'Name': 'Walcourt', 'Latitude': 50.25401, 'Longitude': 4.43796, 'Population': 17501}
{'Name': 'Visé', 'Latitude': 50.7376, 'Longitude': 5.69907, 'Population': 17054}
{'Name': 'Vilvoorde', 'Latitude': 50.92814, 'Longitude': 4.42938, 'Population': 36955}
{'Name': 'Verviers', 'Latitude': 50.58907, 'Longitude': 5.86241, 'Population': 52824}
{'Name': 'Turnhout', 'Latitude': 51.32254, 'Longitude': 4.94471, 'Population': 39654}
{'Name': 'Tubize', 'Latitude': 50.69059, 'Longitude': 4.2009, 'Population': 21859}
{'Name': 'Tournai', 'Latitude': 50.60715, 'Longitude': 3.38932, 'Population': 67721}
{'Name': 'Torhout', 'Latitude': 51.0656, 'Longitude': 3.10085, 'Population': 18933}
{'Name': 'Tongeren', 'Latitude': 50.78054, 'Longitude': 5.46484, 'Population': 29816}
{'Name': 'Tienen', 'Latitude': 50.80745, 'Longitude': 4.9378, 'Population': 31743}
{'Name': 'Tielt', 'Latitude': 50.99931, 'Longitude': 3.32707, 'Population': 19299}
{'Name': 'Tessenderlo', 'Latitude': 51.06513, 'Longitude': 5.08856, 'Population': 16574}
{'Name': 'Tervuren', 'Latitude': 50.82372, 'Longitude': 4.51418, 'Population': 20623}
{'Name': 'Temse', 'Latitude': 51.12794, 'Longitude': 4.21372, 'Population': 26054}
{'Name': 'Stekene', 'Latitude': 51.2099, 'Longitude': 4.03651, 'Population': 16989}
{'Name': 'Stabroek', 'Latitude': 51.33189, 'Longitude': 4.37127, 'Population': 17294}
{'Name': 'Soumagne', 'Latitude': 50.61385, 'Longitude': 5.74679, 'Population': 15237}
{'Name': 'Soignies', 'Latitude': 50.57904, 'Longitude': 4.07129, 'Population': 24869}
{'Name': 'Sint-Truiden', 'Latitude': 50.81679, 'Longitude': 5.18647, 'Population': 37859}
{'Name': 'Sint-Pieters-Leeuw', 'Latitude': 50.77926, 'Longitude': 4.24355, 'Population': 30446}
{'Name': 'Sint-Niklaas', 'Latitude': 51.16509, 'Longitude': 4.1437, 'Population': 69010}
{'Name': 'Sint-Kruis', 'Latitude': 51.21399, 'Longitude': 3.24949, 'Population': 16000}
{'Name': 'Sint-Katelijne-Waver', 'Latitude': 51.06691, 'Longitude': 4.53469, 'Population': 19487}
{'Name': 'Sint-Gillis-Waas', 'Latitude': 51.21914, 'Longitude': 4.12374, 'Population': 17658}
{'Name': 'Sint-Genesius-Rode', 'Latitude': 50.74645, 'Longitude': 4.35754, 'Population': 17990}
{'Name': 'Seraing', 'Latitude': 50.58362, 'Longitude': 5.50115, 'Population': 60737}
{'Name': 'Schoten', 'Latitude': 51.25251, 'Longitude': 4.50268, 'Population': 33622}
{'Name': 'Schilde', 'Latitude': 51.24107, 'Longitude': 4.58336, 'Population': 20373}
{'Name': 'Saint-Nicolas', 'Latitude': 50.62837, 'Longitude': 5.53243, 'Population': 22586}
{'Name': 'Saint-Ghislain', 'Latitude': 50.44816, 'Longitude': 3.81886, 'Population': 22500}
{'Name': 'Rotselaar', 'Latitude': 50.95302, 'Longitude': 4.71665, 'Population': 15007}
{'Name': 'Ronse', 'Latitude': 50.74574, 'Longitude': 3.6005, 'Population': 24204}
{'Name': 'Roeselare', 'Latitude': 50.94653, 'Longitude': 3.12269, 'Population': 56016}
{'Name': 'Rixensart', 'Latitude': 50.71229, 'Longitude': 4.52529, 'Population': 21616}
{'Name': 'Riemst', 'Latitude': 50.80995, 'Longitude': 5.60131, 'Population': 15809}
{'Name': 'Ranst', 'Latitude': 51.18983, 'Longitude': 4.56533, 'Population': 17405}
{'Name': 'Quaregnon', 'Latitude': 50.44067, 'Longitude': 3.8653, 'Population': 18491}
{'Name': 'Puurs', 'Latitude': 51.07409, 'Longitude': 4.28844, 'Population': 15944}
{'Name': 'Putte', 'Latitude': 51.05337, 'Longitude': 4.63263, 'Population': 15276}
{'Name': 'Poperinge', 'Latitude': 50.85386, 'Longitude': 2.72659, 'Population': 19537}
{'Name': 'Pont-à-Celles', 'Latitude': 50.50518, 'Longitude': 4.36887, 'Population': 15909}
{'Name': 'Péruwelz', 'Latitude': 50.50819, 'Longitude': 3.59373, 'Population': 16647}
{'Name': 'Peer', 'Latitude': 51.1303, 'Longitude': 5.45952, 'Population': 15551}
{'Name': 'Overijse', 'Latitude': 50.77436, 'Longitude': 4.53461, 'Population': 23486}
{'Name': 'Oupeye', 'Latitude': 50.71184, 'Longitude': 5.6468, 'Population': 23594}
{'Name': 'Oudenaarde', 'Latitude': 50.85168, 'Longitude': 3.60891, 'Population': 27935}
{'Name': 'Oostkamp', 'Latitude': 51.15432, 'Longitude': 3.23128, 'Population': 21489}
{'Name': 'Ostend', 'Latitude': 51.21551, 'Longitude': 2.927, 'Population': 69011}
{'Name': 'Nivelles', 'Latitude': 50.59833, 'Longitude': 4.32848, 'Population': 24149}
{'Name': 'Ninove', 'Latitude': 50.82776, 'Longitude': 4.02657, 'Population': 34795}
{'Name': 'Nijlen', 'Latitude': 51.16096, 'Longitude': 4.67008, 'Population': 20792}
{'Name': 'Neerpelt', 'Latitude': 51.22807, 'Longitude': 5.4427, 'Population': 16122}
{'Name': 'Namur', 'Latitude': 50.4669, 'Longitude': 4.86746, 'Population': 106284}
{'Name': 'Mouscron', 'Latitude': 50.74497, 'Longitude': 3.20639, 'Population': 52069}
{'Name': 'Mortsel', 'Latitude': 51.16697, 'Longitude': 4.45127, 'Population': 24525}
{'Name': 'Morlanwelz-Mariemont', 'Latitude': 50.45502, 'Longitude': 4.24519, 'Population': 18233}
{'Name': 'Mons', 'Latitude': 50.45413, 'Longitude': 3.95229, 'Population': 91277}
{'Name': 'Mol', 'Latitude': 51.19188, 'Longitude': 5.11662, 'Population': 32659}
{'Name': 'Middelkerke', 'Latitude': 51.18532, 'Longitude': 2.82077, 'Population': 17789}
{'Name': 'Merelbeke', 'Latitude': 50.99447, 'Longitude': 3.74621, 'Population': 22047}
{'Name': 'Menen', 'Latitude': 50.79722, 'Longitude': 3.12245, 'Population': 31916}
{'Name': 'Meise', 'Latitude': 50.93934, 'Longitude': 4.32655, 'Population': 18497}
{'Name': 'Mechelen', 'Latitude': 51.02574, 'Longitude': 4.47762, 'Population': 77530}
{'Name': 'Marche-en-Famenne', 'Latitude': 50.22678, 'Longitude': 5.34416, 'Population': 16856}
{'Name': 'Manage', 'Latitude': 50.50312, 'Longitude': 4.23589, 'Population': 22196}
{'Name': 'Maldegem', 'Latitude': 51.20737, 'Longitude': 3.44511, 'Population': 22092}
{'Name': 'Maasmechelen', 'Latitude': 50.96545, 'Longitude': 5.69452, 'Population': 36251}
{'Name': 'Maaseik', 'Latitude': 51.09802, 'Longitude': 5.78379, 'Population': 23684}
{'Name': 'Louvain-la-Neuve', 'Latitude': 50.66829, 'Longitude': 4.61443, 'Population': 29521}
{'Name': 'Londerzeel', 'Latitude': 51.00468, 'Longitude': 4.30304, 'Population': 17274}
{'Name': 'Lommel', 'Latitude': 51.23074, 'Longitude': 5.31349, 'Population': 31993}
{'Name': 'Lokeren', 'Latitude': 51.10364, 'Longitude': 3.99339, 'Population': 37567}
{'Name': 'Lochristi', 'Latitude': 51.09644, 'Longitude': 3.83194, 'Population': 19696}
{'Name': 'Lille', 'Latitude': 51.24197, 'Longitude': 4.82313, 'Population': 15466}
{'Name': 'Lier', 'Latitude': 51.13128, 'Longitude': 4.57041, 'Population': 33272}
{'Name': 'Liège', 'Latitude': 50.63373, 'Longitude': 5.56749, 'Population': 182597}
{'Name': 'Leuven', 'Latitude': 50.87959, 'Longitude': 4.70093, 'Population': 92892}
{'Name': 'Lessines', 'Latitude': 50.71104, 'Longitude': 3.83579, 'Population': 17687}
{'Name': 'Lede', 'Latitude': 50.96626, 'Longitude': 3.98594, 'Population': 16813}
{'Name': 'Lebbeke', 'Latitude': 51.00464, 'Longitude': 4.13457, 'Population': 17372}
{'Name': 'Lanaken', 'Latitude': 50.89318, 'Longitude': 5.6468, 'Population': 24771}
{'Name': 'La Louvière', 'Latitude': 50.48657, 'Longitude': 4.18785, 'Population': 76668}
{'Name': 'Kortrijk', 'Latitude': 50.82803, 'Longitude': 3.26487, 'Population': 73879}
{'Name': 'Kortenberg', 'Latitude': 50.88982, 'Longitude': 4.54353, 'Population': 17774}
{'Name': 'Kontich', 'Latitude': 51.13213, 'Longitude': 4.44706, 'Population': 20290}
{'Name': 'Koksijde', 'Latitude': 51.11642, 'Longitude': 2.63772, 'Population': 21027}
{'Name': 'Knokke-Heist', 'Latitude': 51.35, 'Longitude': 3.26667, 'Population': 33781}
{'Name': 'Kasterlee', 'Latitude': 51.24118, 'Longitude': 4.96651, 'Population': 17765}
{'Name': 'Kapellen', 'Latitude': 51.31377, 'Longitude': 4.43539, 'Population': 26410}
{'Name': 'Kalmthout', 'Latitude': 51.38442, 'Longitude': 4.47556, 'Population': 17485}
{'Name': 'Izegem', 'Latitude': 50.91396, 'Longitude': 3.21378, 'Population': 26382}
{'Name': 'Ieper', 'Latitude': 50.85114, 'Longitude': 2.88569, 'Population': 35089}
{'Name': 'Huy', 'Latitude': 50.51894, 'Longitude': 5.23284, 'Population': 19973}
{'Name': 'Houthalen', 'Latitude': 51.03427, 'Longitude': 5.37429, 'Population': 30050}
{'Name': 'Hoogstraten', 'Latitude': 51.40029, 'Longitude': 4.76034, 'Population': 18524}
{'Name': 'Hoboken', 'Latitude': 51.17611, 'Longitude': 4.34844, 'Population': 34443}
{'Name': 'Heusden', 'Latitude': 51.03664, 'Longitude': 5.28013, 'Population': 31017}
{'Name': 'Herzele', 'Latitude': 50.88681, 'Longitude': 3.89014, 'Population': 16523}
{'Name': 'Herve', 'Latitude': 50.64083, 'Longitude': 5.79353, 'Population': 16544}
{'Name': 'Herstal', 'Latitude': 50.66415, 'Longitude': 5.62346, 'Population': 36503}
{'Name': 'Herentals', 'Latitude': 51.17655, 'Longitude': 4.83248, 'Population': 25912}
{'Name': 'Herent', 'Latitude': 50.90861, 'Longitude': 4.67056, 'Population': 19218}
{'Name': 'Helchteren', 'Latitude': 51.05591, 'Longitude': 5.38244, 'Population': 30050}
{'Name': 'Heist-op-den-Berg', 'Latitude': 51.07537, 'Longitude': 4.72827, 'Population': 37873}
{'Name': 'Hasselt', 'Latitude': 50.93106, 'Longitude': 5.33781, 'Population': 69222}
{'Name': 'Harelbeke', 'Latitude': 50.85343, 'Longitude': 3.30935, 'Population': 25978}
{'Name': 'Hamme', 'Latitude': 51.09822, 'Longitude': 4.13705, 'Population': 22891}
{'Name': 'Halle', 'Latitude': 50.73385, 'Longitude': 4.23454, 'Population': 34479}
{'Name': 'Haaltert', 'Latitude': 50.90634, 'Longitude': 4.00093, 'Population': 17129}
{'Name': 'Grimbergen', 'Latitude': 50.93409, 'Longitude': 4.37213, 'Population': 33561}
{'Name': 'Geraardsbergen', 'Latitude': 50.77343, 'Longitude': 3.88223, 'Population': 30807}
{'Name': 'Gent', 'Latitude': 51.05, 'Longitude': 3.71667, 'Population': 231493}
{'Name': 'Genk', 'Latitude': 50.965, 'Longitude': 5.50082, 'Population': 63666}
{'Name': 'Gembloux', 'Latitude': 50.56149, 'Longitude': 4.69889, 'Population': 21676}
{'Name': 'Geel', 'Latitude': 51.16557, 'Longitude': 4.98917, 'Population': 34697}
{'Name': 'Frameries', 'Latitude': 50.40578, 'Longitude': 3.89603, 'Population': 20598}
{'Name': 'Fleurus', 'Latitude': 50.48351, 'Longitude': 4.55006, 'Population': 22080}
{'Name': 'Fléron', 'Latitude': 50.61516, 'Longitude': 5.68062, 'Population': 15994}
{'Name': 'Flémalle-Haute', 'Latitude': 50.59994, 'Longitude': 5.44471, 'Population': 25144}
{'Name': 'Evergem', 'Latitude': 51.11306, 'Longitude': 3.70976, 'Population': 31615}
{'Name': 'Eupen', 'Latitude': 50.6279, 'Longitude': 6.03647, 'Population': 18029}
{'Name': 'Essen', 'Latitude': 51.46791, 'Longitude': 4.46901, 'Population': 16754}
{'Name': 'Eeklo', 'Latitude': 51.18703, 'Longitude': 3.55654, 'Population': 19116}
{'Name': 'Edegem', 'Latitude': 51.15662, 'Longitude': 4.44504, 'Population': 21839}
{'Name': 'Duffel', 'Latitude': 51.09554, 'Longitude': 4.50903, 'Population': 16011}
{'Name': 'Dour', 'Latitude': 50.39583, 'Longitude': 3.77792, 'Population': 16861}
{'Name': 'Dilbeek', 'Latitude': 50.84799, 'Longitude': 4.25972, 'Population': 39482}
{'Name': 'Diksmuide', 'Latitude': 51.03248, 'Longitude': 2.86384, 'Population': 15515}
{'Name': 'Diest', 'Latitude': 50.98923, 'Longitude': 5.05062, 'Population': 22516}
{'Name': 'Diepenbeek', 'Latitude': 50.90769, 'Longitude': 5.41875, 'Population': 17699}
{'Name': 'Deurne', 'Latitude': 51.22134, 'Longitude': 4.46595, 'Population': 78747}
{'Name': 'Destelbergen', 'Latitude': 51.05952, 'Longitude': 3.79899, 'Population': 16853}
{'Name': 'Dendermonde', 'Latitude': 51.02869, 'Longitude': 4.10106, 'Population': 43055}
{'Name': 'Denderleeuw', 'Latitude': 50.88506, 'Longitude': 4.07601, 'Population': 16969}
{'Name': 'Deinze', 'Latitude': 50.98175, 'Longitude': 3.53096, 'Population': 29815}
{'Name': 'Courcelles', 'Latitude': 50.46379, 'Longitude': 4.3747, 'Population': 29473}
{'Name': 'Colfontaine', 'Latitude': 50.4141, 'Longitude': 3.85569, 'Population': 19964}
{'Name': 'Chaudfontaine', 'Latitude': 50.5828, 'Longitude': 5.6341, 'Population': 20960}
{'Name': 'Châtelet', 'Latitude': 50.40338, 'Longitude': 4.52826, 'Population': 35238}
{'Name': 'Chasse Royale', 'Latitude': 50.42842, 'Longitude': 3.95001, 'Population': 0}
{'Name': 'Charleroi', 'Latitude': 50.41136, 'Longitude': 4.44448, 'Population': 200132}
{'Name': 'Brussels', 'Latitude': 50.85045, 'Longitude': 4.34878, 'Population': 1019022}
{'Name': 'Brugge', 'Latitude': 51.20892, 'Longitude': 3.22424, 'Population': 116709}
{'Name': 'Brecht', 'Latitude': 51.35024, 'Longitude': 4.63829, 'Population': 25908}
{'Name': 'Brasschaat', 'Latitude': 51.2912, 'Longitude': 4.49182, 'Population': 37040}
{'Name': 'Braine-le-Comte', 'Latitude': 50.60979, 'Longitude': 4.14658, 'Population': 20133}
{'Name': "Braine-l'Alleud", 'Latitude': 50.68363, 'Longitude': 4.36784, 'Population': 37512}
{'Name': 'Boussu', 'Latitude': 50.43417, 'Longitude': 3.7944, 'Population': 20058}
{'Name': 'Bornem', 'Latitude': 51.09716, 'Longitude': 4.24364, 'Population': 19997}
{'Name': 'Boom', 'Latitude': 51.09242, 'Longitude': 4.3717, 'Population': 15810}
{'Name': 'Blankenberge', 'Latitude': 51.31306, 'Longitude': 3.13227, 'Population': 18230}
{'Name': 'Binche', 'Latitude': 50.41155, 'Longitude': 4.16469, 'Population': 32030}
{'Name': 'Bilzen', 'Latitude': 50.87325, 'Longitude': 5.5184, 'Population': 29622}
{'Name': 'Beveren', 'Latitude': 51.21187, 'Longitude': 4.25633, 'Population': 45179}
{'Name': 'Beringen', 'Latitude': 51.04954, 'Longitude': 5.22606, 'Population': 40930}
{'Name': 'Beersel', 'Latitude': 50.76589, 'Longitude': 4.3002, 'Population': 23228}
{'Name': 'Beerse', 'Latitude': 51.31927, 'Longitude': 4.85304, 'Population': 16208}
{'Name': 'Balen', 'Latitude': 51.16837, 'Longitude': 5.17027, 'Population': 19978}
{'Name': 'Ath', 'Latitude': 50.62937, 'Longitude': 3.77801, 'Population': 26681}
{'Name': 'Asse', 'Latitude': 50.91011, 'Longitude': 4.19836, 'Population': 28985}
{'Name': 'Arlon', 'Latitude': 49.68333, 'Longitude': 5.81667, 'Population': 26179}
{'Name': 'Antwerpen', 'Latitude': 51.21989, 'Longitude': 4.40346, 'Population': 459805}
{'Name': 'Ans', 'Latitude': 50.6623, 'Longitude': 5.52029, 'Population': 27297}
{'Name': 'Andenne', 'Latitude': 50.48941, 'Longitude': 5.09513, 'Population': 24055}
{'Name': 'Aarschot', 'Latitude': 50.98715, 'Longitude': 4.83695, 'Population': 27656}
{'Name': 'Aalter', 'Latitude': 51.09017, 'Longitude': 3.44693, 'Population': 18802}
{'Name': 'Aalst', 'Latitude': 50.93604, 'Longitude': 4.0355, 'Population': 77534}
{'Name': 'Zorgo', 'Latitude': 12.24922, 'Longitude': -0.61527, 'Population': 23892}
{'Name': 'Yako', 'Latitude': 12.9591, 'Longitude': -2.26075, 'Population': 22904}
{'Name': 'Tougan', 'Latitude': 13.0725, 'Longitude': -3.0694, 'Population': 17590}
{'Name': 'Titao', 'Latitude': 13.76667, 'Longitude': -2.06667, 'Population': 19131}
{'Name': 'Tenkodogo', 'Latitude': 11.78, 'Longitude': -0.36972, 'Population': 37658}
{'Name': 'Réo', 'Latitude': 12.31963, 'Longitude': -2.47094, 'Population': 37535}
{'Name': 'Pô', 'Latitude': 11.16972, 'Longitude': -1.145, 'Population': 17924}
{'Name': 'Ouahigouya', 'Latitude': 13.58278, 'Longitude': -2.42158, 'Population': 61096}
{'Name': 'Ouagadougou', 'Latitude': 12.36566, 'Longitude': -1.53388, 'Population': 1086505}
{'Name': 'Nouna', 'Latitude': 12.72939, 'Longitude': -3.86305, 'Population': 29048}
{'Name': 'Manga', 'Latitude': 11.66361, 'Longitude': -1.07306, 'Population': 15173}
{'Name': 'Léo', 'Latitude': 11.10033, 'Longitude': -2.10654, 'Population': 26884}
{'Name': 'Koupéla', 'Latitude': 12.17864, 'Longitude': -0.35103, 'Population': 32052}
{'Name': 'Koudougou', 'Latitude': 12.25263, 'Longitude': -2.36272, 'Population': 87347}
{'Name': 'Kongoussi', 'Latitude': 13.32583, 'Longitude': -1.53472, 'Population': 26338}
{'Name': 'Kombissiri', 'Latitude': 12.06884, 'Longitude': -1.33644, 'Population': 30137}
{'Name': 'Kokologo', 'Latitude': 12.19392, 'Longitude': -1.87687, 'Population': 25958}
{'Name': 'Kaya', 'Latitude': 13.09167, 'Longitude': -1.08444, 'Population': 39229}
{'Name': 'Houndé', 'Latitude': 11.5, 'Longitude': -3.51667, 'Population': 36593}
{'Name': 'Gourcy', 'Latitude': 13.20776, 'Longitude': -2.35893, 'Population': 16765}
{'Name': 'Garango', 'Latitude': 11.8, 'Longitude': -0.55056, 'Population': 29076}
{'Name': "Fada N'gourma", 'Latitude': 12.06157, 'Longitude': 0.35843, 'Population': 33910}
{'Name': 'Dori', 'Latitude': 14.0354, 'Longitude': -0.0345, 'Population': 37806}
{'Name': 'Djibo', 'Latitude': 14.0994, 'Longitude': -1.62554, 'Population': 22223}
{'Name': 'Diapaga', 'Latitude': 12.07305, 'Longitude': 1.78838, 'Population': 26013}
{'Name': 'Dédougou', 'Latitude': 12.46338, 'Longitude': -3.46075, 'Population': 45341}
{'Name': 'Boussé', 'Latitude': 12.66121, 'Longitude': -1.89515, 'Population': 15868}
{'Name': 'Boulsa', 'Latitude': 12.66664, 'Longitude': -0.57469, 'Population': 17489}
{'Name': 'Bobo-Dioulasso', 'Latitude': 11.17715, 'Longitude': -4.2979, 'Population': 360106}
{'Name': 'Banfora', 'Latitude': 10.63333, 'Longitude': -4.76667, 'Population': 60288}
{'Name': 'Yambol', 'Latitude': 42.48333, 'Longitude': 26.5, 'Population': 80116}
{'Name': 'Vratsa', 'Latitude': 43.21, 'Longitude': 23.5625, 'Population': 64941}
{'Name': 'Vidin', 'Latitude': 43.99159, 'Longitude': 22.88236, 'Population': 54409}
{'Name': 'Velingrad', 'Latitude': 42.02754, 'Longitude': 23.99155, 'Population': 24036}
{'Name': 'Veliko Tŭrnovo', 'Latitude': 43.08124, 'Longitude': 25.62904, 'Population': 66217}
{'Name': 'Varna', 'Latitude': 43.21667, 'Longitude': 27.91667, 'Population': 312770}
{'Name': 'Targovishte', 'Latitude': 43.2512, 'Longitude': 26.57215, 'Population': 37774}
{'Name': 'Troyan', 'Latitude': 42.89427, 'Longitude': 24.71589, 'Population': 21162}
{'Name': 'Dobrich', 'Latitude': 43.56667, 'Longitude': 27.83333, 'Population': 94831}
{'Name': 'Svishtov', 'Latitude': 43.61875, 'Longitude': 25.35033, 'Population': 32256}
{'Name': 'Svilengrad', 'Latitude': 41.76667, 'Longitude': 26.2, 'Population': 19279}
{'Name': 'Stara Zagora', 'Latitude': 42.43278, 'Longitude': 25.64194, 'Population': 143431}
{'Name': 'Dupnitsa', 'Latitude': 42.26667, 'Longitude': 23.11667, 'Population': 34764}
{'Name': 'Sofia', 'Latitude': 42.69751, 'Longitude': 23.32415, 'Population': 1152556}
{'Name': 'Smolyan', 'Latitude': 41.57439, 'Longitude': 24.71204, 'Population': 32069}
{'Name': 'Sliven', 'Latitude': 42.68583, 'Longitude': 26.32917, 'Population': 96368}
{'Name': 'Silistra', 'Latitude': 44.1171, 'Longitude': 27.26056, 'Population': 39715}
{'Name': 'Shumen', 'Latitude': 43.27064, 'Longitude': 26.92286, 'Population': 87283}
{'Name': 'Sevlievo', 'Latitude': 43.02583, 'Longitude': 25.11361, 'Population': 24582}
{'Name': 'Sandanski', 'Latitude': 41.56667, 'Longitude': 23.28333, 'Population': 26459}
{'Name': 'Samokov', 'Latitude': 42.337, 'Longitude': 23.5528, 'Population': 26765}
{'Name': 'Ruse', 'Latitude': 43.84872, 'Longitude': 25.9534, 'Population': 156238}
{'Name': 'Razgrad', 'Latitude': 43.53333, 'Longitude': 26.51667, 'Population': 38285}
{'Name': 'Rakovski', 'Latitude': 42.27408, 'Longitude': 24.94083, 'Population': 15782}
{'Name': 'Parvomay', 'Latitude': 42.1, 'Longitude': 25.21667, 'Population': 17000}
{'Name': 'Popovo', 'Latitude': 43.35, 'Longitude': 26.23333, 'Population': 16571}
{'Name': 'Plovdiv', 'Latitude': 42.15, 'Longitude': 24.75, 'Population': 340494}
{'Name': 'Pleven', 'Latitude': 43.41667, 'Longitude': 24.61667, 'Population': 118675}
{'Name': 'Petrich', 'Latitude': 41.39846, 'Longitude': 23.20702, 'Population': 30308}
{'Name': 'Peshtera', 'Latitude': 42.03372, 'Longitude': 24.29995, 'Population': 18676}
{'Name': 'Pernik', 'Latitude': 42.6, 'Longitude': 23.03333, 'Population': 82467}
{'Name': 'Pazardzhik', 'Latitude': 42.2, 'Longitude': 24.33333, 'Population': 75977}
{'Name': 'Panagyurishte', 'Latitude': 42.49518, 'Longitude': 24.19021, 'Population': 19389}
{'Name': 'Nova Zagora', 'Latitude': 42.48333, 'Longitude': 26.01667, 'Population': 24340}
{'Name': 'Montana', 'Latitude': 43.4125, 'Longitude': 23.225, 'Population': 47445}
{'Name': 'Lovech', 'Latitude': 43.13333, 'Longitude': 24.71667, 'Population': 42211}
{'Name': 'Lom', 'Latitude': 43.82106, 'Longitude': 23.23677, 'Population': 26594}
{'Name': 'Kyustendil', 'Latitude': 42.28389, 'Longitude': 22.69111, 'Population': 48286}
{'Name': 'Kardzhali', 'Latitude': 41.65, 'Longitude': 25.36667, 'Population': 51000}
{'Name': 'Haskovo', 'Latitude': 41.93415, 'Longitude': 25.55557, 'Population': 79699}
{'Name': 'Harmanli', 'Latitude': 41.93333, 'Longitude': 25.9, 'Population': 18931}
{'Name': 'Kazanlak', 'Latitude': 42.61667, 'Longitude': 25.4, 'Population': 55196}
